{"fee":0,"id":"1180035","lon":17.9180191,"address":"Morgonvägen 243","startPrice":2295000,"hood":"Tullinge - Römossen","lat":59.2063633,"url":"\/beskrivning\/1180035?r=2","squareMeters":109}
{"fee":0,"id":"1166436","lon":17.830681,"address":"Ugglevägen 6f","startPrice":2495000,"hood":"Tumba","lat":59.1797297,"url":"\/beskrivning\/1166436?r=2","squareMeters":140}
{"fee":0,"id":"1161880","lon":18.0644881,"address":"Norsvägen 5","startPrice":2875000,"hood":"Tumba Vretarna","lat":59.3327881,"url":"\/beskrivning\/1161880?r=2","squareMeters":117}
{"fee":0,"id":"1168555","lon":17.8493489,"address":"Postängsvägen 216","startPrice":2975000,"hood":"Norsborg Fittja","lat":59.2452119,"url":"\/beskrivning\/1168555?r=2","squareMeters":146}
{"fee":0,"id":"715672","lon":18.0644881,"address":"Riksten 14 gruppen","startPrice":2895000,"hood":"Tullinge - Riksten","lat":59.3327881,"url":"\/beskrivning\/715672?r=2","squareMeters":1289}
{"fee":0,"id":"1151096","lon":17.8895696,"address":"Trappstigen 16","startPrice":4150000,"hood":"Tullinge gård","lat":59.2140782,"url":"\/beskrivning\/1151096?r=2","squareMeters":188}
{"fee":0,"id":"1156615","lon":17.8848124,"address":"Stendalsvägen 208, SÅLD","startPrice":3100000,"hood":"Tullinge","lat":59.2057166,"url":"\/beskrivning\/1156615?r=2","squareMeters":132}
{"fee":7920,"id":"1132655","lon":18.0644881,"address":"Lantjägarvägen 114","startPrice":795000,"hood":"Tumba - Skäcklinge","lat":59.3327881,"url":"\/beskrivning\/1132655?r=2","squareMeters":119}
{"fee":6973,"id":"1130855","lon":18.0644881,"address":"Månskensvägen 229","startPrice":1195000,"hood":"Tullingeberg Östra","lat":59.3327881,"url":"\/beskrivning\/1130855?r=2","squareMeters":105}
{"fee":0,"id":"292129","lon":17.8354884,"address":"KOLONISTIGEN 3, 9 och 11","startPrice":3600000,"hood":"Torpängen\/Storvreten - Tumba","lat":59.1988136,"url":"\/beskrivning\/292129?r=2","squareMeters":1237}
{"fee":0,"id":"1168155","lon":17.9135218,"address":"Skogshemsvägen 37c","startPrice":2995000,"hood":"Tullinge Skog","lat":59.1987547,"url":"\/beskrivning\/1168155?r=2","squareMeters":126}
{"fee":0,"id":"801523","lon":17.7990096,"address":"Hallundavägen 133","startPrice":1825000,"hood":"Norsborg - Hallunda","lat":59.2441229,"url":"\/beskrivning\/801523?r=2","squareMeters":88}
{"fee":0,"id":"1080316","lon":17.9001421,"address":"Nibblebacken 95","startPrice":1750000,"hood":"Tullinge villastad","lat":59.2241789,"url":"\/beskrivning\/1080316?r=2","squareMeters":70}
{"fee":0,"id":"1183785","lon":17.8975744,"address":"Mellanbergsvägen 48","startPrice":4450000,"hood":"Tullinge Villastad","lat":59.223372,"url":"\/beskrivning\/1183785?r=2","squareMeters":207}
{"fee":0,"id":"1161665","lon":17.8043414,"address":"Isbergs Backe 7","startPrice":3875000,"hood":"Uttran","lat":59.1924842,"url":"\/beskrivning\/1161665?r=2","squareMeters":159}
{"fee":0,"id":"1182435","lon":17.8104223,"address":"Täppstigen 12","startPrice":3495000,"hood":"Tumba - Uttran","lat":59.1913954,"url":"\/beskrivning\/1182435?r=2","squareMeters":132}
{"fee":3761,"id":"1161437","lon":18.0644881,"address":"Nejlikevägen 8 A","startPrice":1595000,"hood":"Tullinge Villastad","lat":59.3327881,"url":"\/beskrivning\/1161437?r=2","squareMeters":70}
{"fee":0,"id":"1180884","lon":18.0644881,"address":"Stallbacken 13","startPrice":2575000,"hood":"Tumba - Skäcklinge","lat":59.3327881,"url":"\/beskrivning\/1180884?r=2","squareMeters":130}
{"fee":0,"id":"1168198","lon":17.9158872,"address":"Skogshemsvägen 46A","startPrice":3595000,"hood":"Tullinge Skog","lat":59.1985051,"url":"\/beskrivning\/1168198?r=2","squareMeters":196}
{"fee":0,"id":"1182395","lon":18.0644881,"address":"Pärlugglevägen 4","startPrice":2475000,"hood":"Tumba Skäcklinge","lat":59.3327881,"url":"\/beskrivning\/1182395?r=2","squareMeters":118}
{"fee":0,"id":"913420","lon":17.8901634,"address":"Anna Maria Roos Väg 7","startPrice":5500000,"hood":"Tullinge  Parkhem","lat":59.2154006,"url":"\/beskrivning\/913420?r=2","squareMeters":205}
{"fee":6856,"id":"866457","lon":18.0644881,"address":"Månskensvägen 231","startPrice":1250000,"hood":"Tullingeberg - Östra","lat":59.3327881,"url":"\/beskrivning\/866457?r=2","squareMeters":101}
{"fee":0,"id":"952378","lon":17.7868909,"address":"Jakobsbergsvägen 21","startPrice":1475000,"hood":"Kagghamra - Grödinge","lat":59.1234081,"url":"\/beskrivning\/952378?r=2","squareMeters":60}
{"fee":0,"id":"1158256","lon":17.9042104,"address":"Nibblebacken 129","startPrice":3575000,"hood":"Tullinge villastad","lat":59.2272069,"url":"\/beskrivning\/1158256?r=2","squareMeters":180}
{"fee":0,"id":"1162876","lon":17.7645849,"address":"Dalgången 22","startPrice":5800000,"hood":"Uttran","lat":59.1840012,"url":"\/beskrivning\/1162876?r=2","squareMeters":148}
{"fee":0,"id":"1184957","lon":17.9176422,"address":"Dalkärrsvägen 22","startPrice":3595000,"hood":"Tullinge Skog","lat":59.1966266,"url":"\/beskrivning\/1184957?r=2","squareMeters":180}
{"fee":0,"id":"718386","lon":17.8354884,"address":"Kolonistigen 6","startPrice":1295000,"hood":"Tumba","lat":59.1988136,"url":"\/beskrivning\/718386?r=2","squareMeters":0}
{"fee":0,"id":"1183263","lon":18.0644881,"address":"Månskensvägen 14","startPrice":2495000,"hood":"Tullingeberg","lat":59.3327881,"url":"\/beskrivning\/1183263?r=2","squareMeters":134}
{"fee":0,"id":"1171184","lon":17.8100003,"address":"Norrskogsvägen 60","startPrice":3495000,"hood":"Norsborg","lat":59.254945,"url":"\/beskrivning\/1171184?r=2","squareMeters":145}
{"fee":0,"id":"1162855","lon":17.8962923,"address":"Almbodabacken 13","startPrice":3125000,"hood":"Tullinge Villastad","lat":59.2212319,"url":"\/beskrivning\/1162855?r=2","squareMeters":152}
{"fee":0,"id":"1168615","lon":18.7848482,"address":"Rådjursvägen 319","startPrice":2295000,"hood":"Lövholmen","lat":59.659455,"url":"\/beskrivning\/1168615?r=2","squareMeters":148}
{"fee":0,"id":"1161882","lon":17.8412222,"address":"Timmerbacken 29","startPrice":1700000,"hood":"Tumba","lat":59.1974097,"url":"\/beskrivning\/1161882?r=2","squareMeters":133}
{"fee":0,"id":"1184701","lon":18.0644881,"address":"Travbanan 28","startPrice":3195000,"hood":"Skäcklinge","lat":59.3327881,"url":"\/beskrivning\/1184701?r=2","squareMeters":125}
{"fee":0,"id":"1168835","lon":17.9131331,"address":"Pilvägen 12","startPrice":1595000,"hood":"Tullinge Trädgårdsstad","lat":59.2193674,"url":"\/beskrivning\/1168835?r=2","squareMeters":63}
{"fee":0,"id":"1153715","lon":18.0757626,"address":"Tynvägen 7","startPrice":7670005,"hood":"Djursholm","lat":59.4061307,"url":"\/beskrivning\/1153715?r=2","squareMeters":1397}
{"fee":0,"id":"804178","lon":18.0641925,"address":"Yngvevägen 5B","startPrice":14900000,"hood":"Djursholm","lat":59.39299,"url":"\/beskrivning\/804178?r=2","squareMeters":540}
{"fee":0,"id":"1095897","lon":18.0832108,"address":"Fimbulvägen 3","startPrice":12700000,"hood":"Djursholm","lat":59.4141925,"url":"\/beskrivning\/1095897?r=2","squareMeters":232}
{"fee":0,"id":"1121055","lon":18.0769649,"address":"Utgårdavägen 8","startPrice":12850000,"hood":"Djursholm","lat":59.4125129,"url":"\/beskrivning\/1121055?r=2","squareMeters":364}
{"fee":0,"id":"1030378","lon":18.0757804,"address":"Östra Vallhallavägen 13","startPrice":7670005,"hood":"Djursholm","lat":59.4065525,"url":"\/beskrivning\/1030378?r=2","squareMeters":1397}
{"fee":0,"id":"1179855","lon":18.0889361,"address":"Heimdalsvägen 13A","startPrice":13900000,"hood":"Djursholm","lat":59.4098497,"url":"\/beskrivning\/1179855?r=2","squareMeters":218}
{"fee":0,"id":"541738","lon":18.0853475,"address":"Skärviksvägen 3","startPrice":38500000,"hood":"Djursholm","lat":59.3873406,"url":"\/beskrivning\/541738?r=2","squareMeters":1000}
{"fee":0,"id":"1161187","lon":18.0394419,"address":"Almstigen 5","startPrice":5950000,"hood":"Enebyberg","lat":59.4351068,"url":"\/beskrivning\/1161187?r=2","squareMeters":144}
{"fee":0,"id":"1162539","lon":18.0253691,"address":"Möjavägen 17","startPrice":3650000,"hood":"Enebyberg","lat":59.4278331,"url":"\/beskrivning\/1162539?r=2","squareMeters":114}
{"fee":0,"id":"1161108","lon":18.0473017,"address":"Gethagsvägen 14d","startPrice":5700000,"hood":"Enebyberg","lat":59.4333303,"url":"\/beskrivning\/1161108?r=2","squareMeters":139}
{"fee":0,"id":"958338","lon":17.7710969,"address":"Vårdagsvägen 5","startPrice":4100000,"hood":"","lat":59.3258871,"url":"\/beskrivning\/958338?r=2","squareMeters":1456}
{"fee":0,"id":"1163357","lon":17.8468777,"address":"Solsidevägen 1","startPrice":6975000,"hood":"Ekerö Gällstaö","lat":59.2792955,"url":"\/beskrivning\/1163357?r=2","squareMeters":205}
{"fee":0,"id":"1160135","lon":17.7327395,"address":"Skogbyvägen 9","startPrice":3700000,"hood":"Färingsö Skå","lat":59.3178341,"url":"\/beskrivning\/1160135?r=2","squareMeters":163}
{"fee":0,"id":"1166215","lon":17.8473188,"address":"Gällsta Bygränd 6","startPrice":3600000,"hood":"Ekerö Gällstaö","lat":59.2835838,"url":"\/beskrivning\/1166215?r=2","squareMeters":129}
{"fee":0,"id":"1170356","lon":17.7789313,"address":"Siktvägen 6","startPrice":5250000,"hood":"Ekerö Sandudden","lat":59.2714796,"url":"\/beskrivning\/1170356?r=2","squareMeters":185}
{"fee":0,"id":"1165578","lon":17.6835735,"address":"Kaggens Täppas Väg 4","startPrice":3975000,"hood":"Ekerö Helgö","lat":59.2759156,"url":"\/beskrivning\/1165578?r=2","squareMeters":172}
{"fee":0,"id":"1093897","lon":17.793132,"address":"Filippavägen 23","startPrice":2600000,"hood":"Ekerö Närlunda","lat":59.2889716,"url":"\/beskrivning\/1093897?r=2","squareMeters":113}
{"fee":0,"id":"596426","lon":17.7735301,"address":"Åsbranten 4","startPrice":4750000,"hood":"","lat":59.2738738,"url":"\/beskrivning\/596426?r=2","squareMeters":125}
{"fee":0,"id":"1156776","lon":17.4221465,"address":"Grenvägen 5A","startPrice":3395000,"hood":"Ekerö Lundhagen","lat":59.2856176,"url":"\/beskrivning\/1156776?r=2","squareMeters":70}
{"fee":0,"id":"1160116","lon":17.8431118,"address":"Barkarby 10 \/ Rörbyvägen 47","startPrice":3750000,"hood":"Drottningholm","lat":59.3283447,"url":"\/beskrivning\/1160116?r=2","squareMeters":78}
{"fee":0,"id":"1165655","lon":17.7379889,"address":"Hammarvägen 3","startPrice":3650000,"hood":"Ekerö Sommarstad","lat":59.2760489,"url":"\/beskrivning\/1165655?r=2","squareMeters":231}
{"fee":0,"id":"698606","lon":17.7693769,"address":"Mörbyvägen","startPrice":4950000,"hood":"Färingsö Mörby","lat":59.3269913,"url":"\/beskrivning\/698606?r=2","squareMeters":82}
{"fee":0,"id":"1160115","lon":17.767158,"address":"Älvnäsvägen 78B","startPrice":5950000,"hood":"Ekerö Älvnäs","lat":59.2883679,"url":"\/beskrivning\/1160115?r=2","squareMeters":180}
{"fee":0,"id":"596410","lon":17.7735301,"address":"Åsbranten 2","startPrice":4695000,"hood":"","lat":59.2738738,"url":"\/beskrivning\/596410?r=2","squareMeters":125}
{"fee":0,"id":"1178075","lon":17.847205,"address":"Furustigen 9","startPrice":9500000,"hood":"Ekerö Gällstaö","lat":59.2785434,"url":"\/beskrivning\/1178075?r=2","squareMeters":251}
{"fee":0,"id":"705682","lon":17.769579,"address":"Rödhakevägen 3A, förslag 1","startPrice":6335000,"hood":"Ekerö Älvnäs","lat":59.286432,"url":"\/beskrivning\/705682?r=2","squareMeters":179}
{"fee":0,"id":"1162519","lon":18.0644881,"address":"Hagabergsvägen 6","startPrice":2975000,"hood":"Färingsö Torslunda","lat":59.3327881,"url":"\/beskrivning\/1162519?r=2","squareMeters":135}
{"fee":0,"id":"1176539","lon":17.6899619,"address":"Skogsvägen 17","startPrice":2475000,"hood":"Färingsö Stenhamra","lat":59.3337253,"url":"\/beskrivning\/1176539?r=2","squareMeters":127}
{"fee":0,"id":"876214","lon":17.769579,"address":"Rödhakevägen 3A, förslag 3","startPrice":5900000,"hood":"Ekerö Älvnäs","lat":59.286432,"url":"\/beskrivning\/876214?r=2","squareMeters":143}
{"fee":0,"id":"1156782","lon":17.7891341,"address":"Södra Kafévägen 10","startPrice":3925000,"hood":"Ekerö Träkvista","lat":59.2739294,"url":"\/beskrivning\/1156782?r=2","squareMeters":110}
{"fee":0,"id":"660200","lon":17.8117318,"address":"Västra Sandudden","startPrice":5320000,"hood":"Ekerö","lat":59.289531,"url":"\/beskrivning\/660200?r=2","squareMeters":135}
{"fee":0,"id":"1156815","lon":17.7813205,"address":"Sidenvägen 31","startPrice":2625000,"hood":"Ekerö Träkvista","lat":59.2752954,"url":"\/beskrivning\/1156815?r=2","squareMeters":123}
{"fee":0,"id":"943233","lon":17.4952009,"address":"Hallsta","startPrice":2495000,"hood":"Adelsö - Ekerö","lat":59.3574086,"url":"\/beskrivning\/943233?r=2","squareMeters":121}
{"fee":0,"id":"1168818","lon":17.8012149,"address":"Gräsåkersvägen 7A","startPrice":2950000,"hood":"Ekerö Gräsåker","lat":59.2752587,"url":"\/beskrivning\/1168818?r=2","squareMeters":116}
{"fee":0,"id":"1041957","lon":17.7933587,"address":"Filippavägen 6","startPrice":3250000,"hood":"Ekerö Närlunda","lat":59.2874965,"url":"\/beskrivning\/1041957?r=2","squareMeters":125}
{"fee":0,"id":"1070895","lon":17.6359745,"address":"Bygärdesvägen 8","startPrice":2975000,"hood":"Färingsö Kungsberga","lat":59.4047664,"url":"\/beskrivning\/1070895?r=2","squareMeters":190}
{"fee":0,"id":"1078277","lon":18.0644881,"address":"Sotingevägen 5","startPrice":3195000,"hood":"Söderby Brygga","lat":59.3327881,"url":"\/beskrivning\/1078277?r=2","squareMeters":165}
{"fee":0,"id":"1185136","lon":18.1648891,"address":"Hjälmvids Backe 29","startPrice":1990000,"hood":"Haninge","lat":59.1886275,"url":"\/beskrivning\/1185136?r=2","squareMeters":72}
{"fee":0,"id":"986517","lon":18.2813889,"address":"Oxnövägen 37","startPrice":3650000,"hood":"Gålö","lat":59.0913889,"url":"\/beskrivning\/986517?r=2","squareMeters":110}
{"fee":0,"id":"1035617","lon":18.1638704,"address":"Norrbyvägen 66","startPrice":2000000,"hood":"Haninge","lat":59.198269,"url":"\/beskrivning\/1035617?r=2","squareMeters":45}
{"fee":0,"id":"1183268","lon":18.1285671,"address":"Asplunds Väg 2a","startPrice":3295000,"hood":"Vega","lat":59.1924681,"url":"\/beskrivning\/1183268?r=2","squareMeters":118}
{"fee":0,"id":"1016729","lon":17.5946218,"address":"Skolvägen 44","startPrice":7995000,"hood":"Skogs Ekeby","lat":59.3658588,"url":"\/beskrivning\/1016729?r=2","squareMeters":500}
{"fee":0,"id":"1127235","lon":18.0981687,"address":"Villavägen 180","startPrice":2395000,"hood":"Västerhaninge centralt","lat":59.1194489,"url":"\/beskrivning\/1127235?r=2","squareMeters":122}
{"fee":0,"id":"1149878","lon":18.0644881,"address":"Tistelvägen 40","startPrice":2975000,"hood":"Lötkärr","lat":59.3327881,"url":"\/beskrivning\/1149878?r=2","squareMeters":129}
{"fee":0,"id":"1184762","lon":18.1450311,"address":"Krogtäppan 85","startPrice":1950000,"hood":"Jordbro","lat":59.1501938,"url":"\/beskrivning\/1184762?r=2","squareMeters":144}
{"fee":0,"id":"629628","lon":17.9757996,"address":"Jennylundsvägen 15","startPrice":2495000,"hood":"HEMFOSA","lat":59.0675019,"url":"\/beskrivning\/629628?r=2","squareMeters":136}
{"fee":0,"id":"1149575","lon":18.1574229,"address":"Gamla Vägen 41","startPrice":3490000,"hood":"Årsta Havsbad","lat":59.0876969,"url":"\/beskrivning\/1149575?r=2","squareMeters":160}
{"fee":0,"id":"1149555","lon":18.1878835,"address":"Mellanvägen 3","startPrice":3650000,"hood":"Vendelsö","lat":59.1903896,"url":"\/beskrivning\/1149555?r=2","squareMeters":125}
{"fee":0,"id":"1159815","lon":18.1883951,"address":"Oxhagsvägen 56","startPrice":1195000,"hood":"Lötkärr\/Vendelsö","lat":59.1985789,"url":"\/beskrivning\/1159815?r=2","squareMeters":126}
{"fee":0,"id":"1022335","lon":18.1279991,"address":"Altorpsvägen 13","startPrice":1700000,"hood":"Muskö","lat":58.9995909,"url":"\/beskrivning\/1022335?r=2","squareMeters":113}
{"fee":0,"id":"1177075","lon":18.1343899,"address":"Nynäsvägen 5","startPrice":2995000,"hood":"Södra Söderby\/Haninge","lat":59.1556951,"url":"\/beskrivning\/1177075?r=2","squareMeters":108}
{"fee":0,"id":"1161110","lon":18.1275744,"address":"Skarpavägen 26","startPrice":1695000,"hood":"Muskö","lat":59.002854,"url":"\/beskrivning\/1161110?r=2","squareMeters":152}
{"fee":0,"id":"1171178","lon":18.1735916,"address":"Lodjurets Gata 291","startPrice":2250000,"hood":"Östra Brandbergen","lat":59.1725909,"url":"\/beskrivning\/1171178?r=2","squareMeters":133}
{"fee":0,"id":"1159516","lon":18.0719057,"address":"Torgöts Väg 2","startPrice":2945000,"hood":"Norra Söderby","lat":59.0538999,"url":"\/beskrivning\/1159516?r=2","squareMeters":98}
{"fee":0,"id":"1123476","lon":18.1007039,"address":"Villavägen 22","startPrice":2700000,"hood":"Västerhaninge-Centralt","lat":59.1211667,"url":"\/beskrivning\/1123476?r=2","squareMeters":122}
{"fee":0,"id":"1152357","lon":18.0644881,"address":"Vidjestigen 5a","startPrice":3875000,"hood":"Lötkärr","lat":59.3327881,"url":"\/beskrivning\/1152357?r=2","squareMeters":188}
{"fee":0,"id":"1179618","lon":18.1293652,"address":"Söderhagsudden 16","startPrice":3895000,"hood":"Vega","lat":59.191323,"url":"\/beskrivning\/1179618?r=2","squareMeters":125}
{"fee":0,"id":"1170576","lon":18.0644881,"address":"Vendelsömalmsvägen 145B","startPrice":2475000,"hood":"Vendelsömalm","lat":59.3327881,"url":"\/beskrivning\/1170576?r=2","squareMeters":130}
{"fee":0,"id":"1154903","lon":17.7756236,"address":"Turbinvägen 5","startPrice":2475000,"hood":"Kvarntorp","lat":59.0623752,"url":"\/beskrivning\/1154903?r=2","squareMeters":98}
{"fee":0,"id":"1035976","lon":18.4181738,"address":"Skogsvägen 10","startPrice":4450000,"hood":"Dalarö","lat":59.1452766,"url":"\/beskrivning\/1035976?r=2","squareMeters":160}
{"fee":0,"id":"1159236","lon":18.0369825,"address":"Skolvägen 57","startPrice":2975000,"hood":"Tungelsta","lat":59.1128481,"url":"\/beskrivning\/1159236?r=2","squareMeters":160}
{"fee":0,"id":"1164515","lon":18.146587,"address":"Sommarbo 277","startPrice":2095000,"hood":"Jordbro","lat":59.1461155,"url":"\/beskrivning\/1164515?r=2","squareMeters":122}
{"fee":0,"id":"1162815","lon":18.1668991,"address":"Stora Björnens Gata 59","startPrice":1995000,"hood":"Brandbergen","lat":59.1659504,"url":"\/beskrivning\/1162815?r=2","squareMeters":133}
{"fee":0,"id":"1144396","lon":18.0989113,"address":"Villavägen 134","startPrice":1895000,"hood":"Västerhaninge-Centralt","lat":59.1196681,"url":"\/beskrivning\/1144396?r=2","squareMeters":122}
{"fee":0,"id":"1165115","lon":18.1987589,"address":"Svartbäckens By 388","startPrice":2150000,"hood":"Svartbäcken","lat":59.1713252,"url":"\/beskrivning\/1165115?r=2","squareMeters":134}
{"fee":0,"id":"1151017","lon":18.0388624,"address":"Kvarnvägen 21","startPrice":2800000,"hood":"Tungelsta","lat":59.104408,"url":"\/beskrivning\/1151017?r=2","squareMeters":145}
{"fee":0,"id":"1173675","lon":18.0644881,"address":"Alfabetsvägen 52","startPrice":2950000,"hood":"Vendelsömalm","lat":59.3327881,"url":"\/beskrivning\/1173675?r=2","squareMeters":142}
{"fee":0,"id":"1157357","lon":18.0644881,"address":"Götabergsvägen 3","startPrice":3495000,"hood":"Vendelsömalm","lat":59.3327881,"url":"\/beskrivning\/1157357?r=2","squareMeters":125}
{"fee":0,"id":"789576","lon":18.1286751,"address":"Altorpsvägen 21","startPrice":1720000,"hood":"Muskö","lat":59.0000396,"url":"\/beskrivning\/789576?r=2","squareMeters":148}
{"fee":0,"id":"1156855","lon":18.2018846,"address":"Gamla Lyckebyvägen 10","startPrice":4495000,"hood":"Vendelsö","lat":59.1969026,"url":"\/beskrivning\/1156855?r=2","squareMeters":171}
{"fee":0,"id":"1171697","lon":18.1847592,"address":"Tyrestavägen 23","startPrice":2795000,"hood":"Vendelsö","lat":59.1757474,"url":"\/beskrivning\/1171697?r=2","squareMeters":86}
{"fee":0,"id":"1157920","lon":18.1302267,"address":"Stybbvägen 3","startPrice":2875000,"hood":"Haninge - Kolartorp","lat":59.1777625,"url":"\/beskrivning\/1157920?r=2","squareMeters":97}
{"fee":0,"id":"1162379","lon":18.0858027,"address":"Dahliavägen 25","startPrice":1995000,"hood":"Västerhaninge\/Jägartorp","lat":59.1260743,"url":"\/beskrivning\/1162379?r=2","squareMeters":109}
{"fee":0,"id":"1143176","lon":18.0644881,"address":"Ekingevägen 5","startPrice":3540000,"hood":"Tungelsta-Solsäter","lat":59.3327881,"url":"\/beskrivning\/1143176?r=2","squareMeters":169}
{"fee":0,"id":"888240","lon":18.0954479,"address":"Parkvägen 2c","startPrice":3195000,"hood":"","lat":59.12342,"url":"\/beskrivning\/888240?r=2","squareMeters":105}
{"fee":0,"id":"629628","lon":17.9757996,"address":"Jennylundsvägen 15","startPrice":2495000,"hood":"HEMFOSA","lat":59.0675019,"url":"\/beskrivning\/629628?r=2","squareMeters":136}
{"fee":0,"id":"1168417","lon":18.0006142,"address":"Korsmyravägen 27","startPrice":1895000,"hood":"Tungelsta\/Väländan","lat":59.1091713,"url":"\/beskrivning\/1168417?r=2","squareMeters":120}
{"fee":0,"id":"1162795","lon":18.1405357,"address":"Kullerstensvägen 27","startPrice":1845000,"hood":"Jordbro","lat":59.13507,"url":"\/beskrivning\/1162795?r=2","squareMeters":120}
{"fee":0,"id":"1166379","lon":18.1321389,"address":"Jökelvägen 16","startPrice":3350000,"hood":"Vega\/Haninge","lat":59.1899746,"url":"\/beskrivning\/1166379?r=2","squareMeters":130}
{"fee":0,"id":"1168762","lon":18.1944341,"address":"Östra Strandvägen 8A","startPrice":6950000,"hood":"Vendelsö","lat":59.2069813,"url":"\/beskrivning\/1168762?r=2","squareMeters":173}
{"fee":0,"id":"1149859","lon":18.1410383,"address":"Krogtäppan 44","startPrice":2250000,"hood":"Jordbro","lat":59.1508995,"url":"\/beskrivning\/1149859?r=2","squareMeters":153}
{"fee":0,"id":"1149915","lon":18.133955,"address":"Pusshagen 61","startPrice":1850000,"hood":"Jordbro","lat":59.1447604,"url":"\/beskrivning\/1149915?r=2","squareMeters":103}
{"fee":0,"id":"902179","lon":18.056589,"address":"Ekingevägen 13","startPrice":4920000,"hood":"","lat":59.1147887,"url":"\/beskrivning\/902179?r=2","squareMeters":172}
{"fee":0,"id":"1185275","lon":18.5103887,"address":"Kvistvägen 4","startPrice":2550000,"hood":"Vendelsö Ramsdalen","lat":59.2534894,"url":"\/beskrivning\/1185275?r=2","squareMeters":155}
{"fee":0,"id":"1151296","lon":18.1136907,"address":"Ribbylundsvägen 2","startPrice":2750000,"hood":"Västerhaninge Ribby","lat":59.111957,"url":"\/beskrivning\/1151296?r=2","squareMeters":95}
{"fee":0,"id":"621677","lon":18.0719057,"address":"Myrmalmsringen 221","startPrice":3030000,"hood":"Norra Söderby","lat":59.0538999,"url":"\/beskrivning\/621677?r=2","squareMeters":105}
{"fee":0,"id":"1170195","lon":17.993061,"address":"Väländastigen 3","startPrice":1695000,"hood":"Tungelsta-Väländan","lat":59.1116137,"url":"\/beskrivning\/1170195?r=2","squareMeters":70}
{"fee":0,"id":"1184141","lon":18.1689168,"address":"Lodjurets Gata 237","startPrice":2395000,"hood":"Brandbergen","lat":59.1647794,"url":"\/beskrivning\/1184141?r=2","squareMeters":133}
{"fee":0,"id":"1146436","lon":18.1637556,"address":"Stora Björnens Gata 18","startPrice":2450000,"hood":"Brandbergen","lat":59.1664531,"url":"\/beskrivning\/1146436?r=2","squareMeters":131}
{"fee":0,"id":"888341","lon":18.0957702,"address":"Parkvägen 2b","startPrice":3195000,"hood":"","lat":59.1232309,"url":"\/beskrivning\/888341?r=2","squareMeters":105}
{"fee":0,"id":"998576","lon":18.0086435,"address":"Månstensvägen 10","startPrice":2500000,"hood":"Huddinge - Ådran","lat":59.1493059,"url":"\/beskrivning\/998576?r=2","squareMeters":55}
{"fee":0,"id":"948399","lon":18.0644881,"address":"Bondvägen 163","startPrice":1695000,"hood":"Gudö","lat":59.3327881,"url":"\/beskrivning\/948399?r=2","squareMeters":0}
{"fee":0,"id":"1184241","lon":18.1990979,"address":"Svartbäckens By 472","startPrice":2525000,"hood":"Svartbäcken\/Haninge","lat":59.1723317,"url":"\/beskrivning\/1184241?r=2","squareMeters":134}
{"fee":0,"id":"1149858","lon":18.134363,"address":"Nordenskiölds Väg 23","startPrice":2750000,"hood":"Vega","lat":59.1924142,"url":"\/beskrivning\/1149858?r=2","squareMeters":146}
{"fee":0,"id":"1168215","lon":18.1504425,"address":"Duettvägen 167","startPrice":1995000,"hood":"Östra Skogås","lat":59.2196602,"url":"\/beskrivning\/1168215?r=2","squareMeters":110}
{"fee":0,"id":"685764","lon":17.9878234,"address":"Barrskogsvägen 7","startPrice":2400000,"hood":"Gladö Kvarn","lat":59.1931034,"url":"\/beskrivning\/685764?r=2","squareMeters":56}
{"fee":0,"id":"1144258","lon":17.9279824,"address":"Hagvägen 62","startPrice":3300000,"hood":"Segeltorp","lat":59.2713538,"url":"\/beskrivning\/1144258?r=2","squareMeters":85}
{"fee":0,"id":"881692","lon":18.0644881,"address":"Porsmossevägen 12","startPrice":7000000,"hood":"Högmora","lat":59.3327881,"url":"\/beskrivning\/881692?r=2","squareMeters":137}
{"fee":0,"id":"861300","lon":18.001875,"address":"Champinjonvägen 66","startPrice":2595000,"hood":"Sörskogen","lat":59.2210335,"url":"\/beskrivning\/861300?r=2","squareMeters":105}
{"fee":0,"id":"1152236","lon":18.0807443,"address":"Myrängsvägen 52A","startPrice":2895000,"hood":"Myrängen","lat":59.4632973,"url":"\/beskrivning\/1152236?r=2","squareMeters":122}
{"fee":0,"id":"1154695","lon":17.972019,"address":"Holmgårdsvägen 44B","startPrice":3600000,"hood":"Huddinge Solgård","lat":59.2291439,"url":"\/beskrivning\/1154695?r=2","squareMeters":167}
{"fee":0,"id":"1182319","lon":17.981178,"address":"Storskogsvägen 19","startPrice":3050000,"hood":"Stuvsta \/ Huddinge","lat":59.2372717,"url":"\/beskrivning\/1182319?r=2","squareMeters":82}
{"fee":0,"id":"885963","lon":18.0757805,"address":"Skattetorpsvägen 8","startPrice":3200000,"hood":"Fållan","lat":59.2916862,"url":"\/beskrivning\/885963?r=2","squareMeters":70}
{"fee":0,"id":"998935","lon":18.0086435,"address":"Månstensvägen 10","startPrice":2500000,"hood":"Huddinge - Ådran","lat":59.1493059,"url":"\/beskrivning\/998935?r=2","squareMeters":55}
{"fee":0,"id":"1185497","lon":17.9442897,"address":"Lövdungevägen 14","startPrice":2795000,"hood":"Segeltorp","lat":59.2809607,"url":"\/beskrivning\/1185497?r=2","squareMeters":103}
{"fee":0,"id":"1155020","lon":17.9476272,"address":"Mickelsbergsvägen 382","startPrice":3150000,"hood":"Segeltorp","lat":59.2763253,"url":"\/beskrivning\/1155020?r=2","squareMeters":125}
{"fee":0,"id":"1182798","lon":18.0644881,"address":"","startPrice":0,"hood":"Utsälje","lat":59.3327881,"url":"\/beskrivning\/1182798?r=2","squareMeters":126}
{"fee":0,"id":"1181558","lon":18.0685139,"address":"Lillbergavägen 8","startPrice":1795000,"hood":"Lissma","lat":59.1813325,"url":"\/beskrivning\/1181558?r=2","squareMeters":52}
{"fee":0,"id":"1184156","lon":18.0804168,"address":"Länsvägen 30","startPrice":5475000,"hood":"Mellansjö","lat":59.229559,"url":"\/beskrivning\/1184156?r=2","squareMeters":185}
{"fee":0,"id":"1165103","lon":18.2122396,"address":"Fagerängsvägen 22","startPrice":4500000,"hood":"Stensängen","lat":59.4155089,"url":"\/beskrivning\/1165103?r=2","squareMeters":132}
{"fee":0,"id":"1183578","lon":18.0644881,"address":"Trångsundsvägen 61","startPrice":3795000,"hood":"Trångsund\/Sjöängen","lat":59.3327881,"url":"\/beskrivning\/1183578?r=2","squareMeters":140}
{"fee":0,"id":"1156515","lon":17.9650456,"address":"Dammvägen 102","startPrice":2995000,"hood":"Fullersta","lat":59.2389938,"url":"\/beskrivning\/1156515?r=2","squareMeters":116}
{"fee":0,"id":"820344","lon":17.9241957,"address":"Benvedsbacken 19, hus 361","startPrice":4190000,"hood":"Vistaberg\/Glömsta","lat":59.2499389,"url":"\/beskrivning\/820344?r=2","squareMeters":128}
{"fee":0,"id":"820004","lon":17.9241957,"address":"Benvedsbacken 9, hus 366","startPrice":4290000,"hood":"Vistaberg\/Glömsta","lat":59.2499389,"url":"\/beskrivning\/820004?r=2","squareMeters":128}
{"fee":0,"id":"820145","lon":17.9241957,"address":"Benvedsbacken 7, hus 367","startPrice":4490000,"hood":"Vistaberg\/Glömsta","lat":59.2499389,"url":"\/beskrivning\/820145?r=2","squareMeters":128}
{"fee":0,"id":"940086","lon":18.0644881,"address":"Häradsvägen 97","startPrice":4475000,"hood":"Snättringe","lat":59.3327881,"url":"\/beskrivning\/940086?r=2","squareMeters":167}
{"fee":0,"id":"1123415","lon":17.8844024,"address":"Duvbergsvägen 62B","startPrice":4895000,"hood":"Huddinge- Vårby","lat":59.2607392,"url":"\/beskrivning\/1123415?r=2","squareMeters":175}
{"fee":0,"id":"882523","lon":18.1542325,"address":"Österhagsvägen 23","startPrice":5200000,"hood":"Länna","lat":59.2039584,"url":"\/beskrivning\/882523?r=2","squareMeters":162}
{"fee":0,"id":"1182075","lon":17.9785021,"address":"Norrbyvägen 19","startPrice":3500000,"hood":"Fullersta","lat":59.2461922,"url":"\/beskrivning\/1182075?r=2","squareMeters":82}
{"fee":0,"id":"1162378","lon":18.1504425,"address":"Altvägen 121","startPrice":2500000,"hood":"Östra Skogås","lat":59.2196602,"url":"\/beskrivning\/1162378?r=2","squareMeters":115}
{"fee":0,"id":"1163295","lon":17.6986248,"address":"Lännavägen 14","startPrice":3900000,"hood":"Hörningsnäs","lat":59.0631801,"url":"\/beskrivning\/1163295?r=2","squareMeters":140}
{"fee":0,"id":"1171077","lon":18.0644881,"address":"Allévägen 2","startPrice":2890000,"hood":"Snättringe","lat":59.3327881,"url":"\/beskrivning\/1171077?r=2","squareMeters":116}
{"fee":0,"id":"1152918","lon":18.0401843,"address":"Hammardalsslingan 14","startPrice":1775000,"hood":"Solbacken","lat":59.2279349,"url":"\/beskrivning\/1152918?r=2","squareMeters":55}
{"fee":0,"id":"830861","lon":18.1433544,"address":"Blåklintsvägen 21B","startPrice":3295000,"hood":"Trångsund","lat":59.2304521,"url":"\/beskrivning\/830861?r=2","squareMeters":138}
{"fee":0,"id":"653055","lon":17.9589189,"address":"Råstensvägen 12","startPrice":11100000,"hood":"Fullersta","lat":59.2406214,"url":"\/beskrivning\/653055?r=2","squareMeters":245}
{"fee":0,"id":"1164488","lon":17.9769507,"address":"Åvägen 6","startPrice":4625000,"hood":"Fullersta","lat":59.2434767,"url":"\/beskrivning\/1164488?r=2","squareMeters":135}
{"fee":0,"id":"1151740","lon":18.0644881,"address":"Buddlejavägen 27","startPrice":3695000,"hood":"Vistabergs trädgårdsstad","lat":59.3327881,"url":"\/beskrivning\/1151740?r=2","squareMeters":112}
{"fee":0,"id":"1183641","lon":18.0644881,"address":"Norrängsvägen 69A","startPrice":4450000,"hood":"Stuvsta","lat":59.3327881,"url":"\/beskrivning\/1183641?r=2","squareMeters":172}
{"fee":0,"id":"1165779","lon":18.1583447,"address":"Revyvägen 4","startPrice":3695000,"hood":"Skogås","lat":59.2263246,"url":"\/beskrivning\/1165779?r=2","squareMeters":121}
{"fee":0,"id":"1182101","lon":18.0644881,"address":"Tranvägen 7","startPrice":1975000,"hood":"Snättringe","lat":59.3327881,"url":"\/beskrivning\/1182101?r=2","squareMeters":96}
{"fee":0,"id":"1148217","lon":17.9900808,"address":"Taggsvampsvägen 40","startPrice":2795000,"hood":"Sörskogen","lat":59.2238753,"url":"\/beskrivning\/1148217?r=2","squareMeters":175}
{"fee":6993,"id":"1165986","lon":18.0644881,"address":"Myrstuguvägen 199","startPrice":695000,"hood":"Myrstuguberget","lat":59.3327881,"url":"\/beskrivning\/1165986?r=2","squareMeters":1025}
{"fee":4988,"id":"1147176","lon":17.9460769,"address":"Eldtornsvägen 6","startPrice":2650000,"hood":"Vistaberg","lat":59.2371844,"url":"\/beskrivning\/1147176?r=2","squareMeters":129}
{"fee":0,"id":"1177419","lon":17.9611484,"address":"Lövdalsvägen 12","startPrice":3175000,"hood":"Segeltorp","lat":59.2646062,"url":"\/beskrivning\/1177419?r=2","squareMeters":184}
{"fee":0,"id":"1061115","lon":18.0644881,"address":"Förgyllarvägen 22","startPrice":2950000,"hood":"Utsälje","lat":59.3327881,"url":"\/beskrivning\/1061115?r=2","squareMeters":119}
{"fee":0,"id":"1157595","lon":17.9602165,"address":"Krokvägen 35","startPrice":4575000,"hood":"Fullersta","lat":59.2446762,"url":"\/beskrivning\/1157595?r=2","squareMeters":169}
{"fee":0,"id":"507490","lon":18.1504425,"address":"Rapsodivägen","startPrice":1995000,"hood":"Östra Skogås","lat":59.2196602,"url":"\/beskrivning\/507490?r=2","squareMeters":103}
{"fee":0,"id":"1104955","lon":18.0644881,"address":"Ingentingsvägen 13A","startPrice":3795000,"hood":"Stuvsta","lat":59.3327881,"url":"\/beskrivning\/1104955?r=2","squareMeters":154}
{"fee":0,"id":"1049097","lon":17.9537025,"address":"Tjäderspelsvägen 25-27","startPrice":1900000,"hood":"FULLERSTA","lat":59.2442472,"url":"\/beskrivning\/1049097?r=2","squareMeters":0}
{"fee":0,"id":"1162557","lon":17.9521075,"address":"Gösta Lindells Väg 43","startPrice":3975000,"hood":"Vistaberg","lat":59.2364794,"url":"\/beskrivning\/1162557?r=2","squareMeters":148}
{"fee":0,"id":"1103236","lon":18.0073995,"address":"Kritvägen 6","startPrice":2250000,"hood":"Balingsnäs","lat":59.2247889,"url":"\/beskrivning\/1103236?r=2","squareMeters":105}
{"fee":0,"id":"1186097","lon":18.0644881,"address":"Glimmerstigen 3","startPrice":3495000,"hood":"Stuvsta Centrum","lat":59.3327881,"url":"\/beskrivning\/1186097?r=2","squareMeters":113}
{"fee":0,"id":"1051095","lon":17.9528372,"address":"Tjäderspelsvägen 21","startPrice":1850000,"hood":"FULLERSTA","lat":59.2453302,"url":"\/beskrivning\/1051095?r=2","squareMeters":0}
{"fee":0,"id":"1006019","lon":18.1436893,"address":"Smedjevägen 6A","startPrice":3975000,"hood":"Länna","lat":59.2020043,"url":"\/beskrivning\/1006019?r=2","squareMeters":1652}
{"fee":0,"id":"1144275","lon":18.0644881,"address":"Snättringevägen 35A","startPrice":3300000,"hood":"Snättringe","lat":59.3327881,"url":"\/beskrivning\/1144275?r=2","squareMeters":110}
{"fee":0,"id":"1159196","lon":17.837386,"address":"Saturnusvägen 2A","startPrice":3490000,"hood":"Skälby","lat":59.3867194,"url":"\/beskrivning\/1159196?r=2","squareMeters":150}
{"fee":3600,"id":"1167997","lon":17.890556,"address":"Vålbergavägen 225","startPrice":1995000,"hood":"Barkarby","lat":59.41861,"url":"\/beskrivning\/1167997?r=2","squareMeters":103}
{"fee":0,"id":"1157108","lon":18.0644881,"address":"Orkanvägen 25","startPrice":2895000,"hood":"Jakobsberg - Polhem","lat":59.3327881,"url":"\/beskrivning\/1157108?r=2","squareMeters":115}
{"fee":0,"id":"1162720","lon":17.8289346,"address":"Ekedalsvägen 101","startPrice":1895000,"hood":"Jakobsberg","lat":59.4325073,"url":"\/beskrivning\/1162720?r=2","squareMeters":96}
{"fee":4906,"id":"1161078","lon":17.8381211,"address":"Stora Björnens Gränd 21","startPrice":1595000,"hood":"Skälby","lat":59.388571,"url":"\/beskrivning\/1161078?r=2","squareMeters":103}
{"fee":0,"id":"1160155","lon":17.890556,"address":"Björkebyvägen 11a","startPrice":3895000,"hood":"Barkarby","lat":59.41861,"url":"\/beskrivning\/1160155?r=2","squareMeters":156}
{"fee":0,"id":"1167875","lon":18.0644881,"address":"Skogsvägen 30","startPrice":2750000,"hood":"Jakobsberg Västra","lat":59.3327881,"url":"\/beskrivning\/1167875?r=2","squareMeters":125}
{"fee":0,"id":"1178415","lon":17.7950389,"address":"Gäddvägen 44","startPrice":2495000,"hood":"Viksjö","lat":59.4119451,"url":"\/beskrivning\/1178415?r=2","squareMeters":120}
{"fee":0,"id":"1162916","lon":17.8260345,"address":"Venusvägen 14","startPrice":2475000,"hood":"Skälby","lat":59.3848461,"url":"\/beskrivning\/1162916?r=2","squareMeters":121}
{"fee":0,"id":"1149036","lon":17.7907699,"address":"Metargränd 51","startPrice":1995000,"hood":"Viksjö","lat":59.4060396,"url":"\/beskrivning\/1149036?r=2","squareMeters":93}
{"fee":4683,"id":"1147877","lon":18.0644881,"address":"Sunnanvindsgränd 195","startPrice":1300000,"hood":"Nydal","lat":59.3327881,"url":"\/beskrivning\/1147877?r=2","squareMeters":795}
{"fee":3600,"id":"1155499","lon":17.890556,"address":"Flygarvägen 89","startPrice":2250000,"hood":"Barkarby","lat":59.41861,"url":"\/beskrivning\/1155499?r=2","squareMeters":103}
{"fee":5880,"id":"1152659","lon":17.837355,"address":"Vattumannens gränd 18","startPrice":1495000,"hood":"Skälby","lat":59.3898986,"url":"\/beskrivning\/1152659?r=2","squareMeters":124}
{"fee":0,"id":"1159175","lon":17.828007,"address":"Planetvägen 2","startPrice":3490000,"hood":"Skälby","lat":59.3826379,"url":"\/beskrivning\/1159175?r=2","squareMeters":153}
{"fee":0,"id":"931361","lon":17.7975345,"address":"Björnstiernas Väg 1B","startPrice":3495000,"hood":"Stäket","lat":59.4758893,"url":"\/beskrivning\/931361?r=2","squareMeters":135}
{"fee":0,"id":"1152166","lon":17.8758645,"address":"Organistvägen 1A","startPrice":3875000,"hood":"","lat":59.4082631,"url":"\/beskrivning\/1152166?r=2","squareMeters":207}
{"fee":0,"id":"1149838","lon":17.7902377,"address":"Stängselvägen 39, 149+22 kvm","startPrice":3075000,"hood":"Viksjö","lat":59.4167542,"url":"\/beskrivning\/1149838?r=2","squareMeters":149}
{"fee":0,"id":"1171160","lon":17.8338413,"address":"Månskensgränd 5","startPrice":2875000,"hood":"Jakobsberg","lat":59.4442964,"url":"\/beskrivning\/1171160?r=2","squareMeters":121}
{"fee":0,"id":"1151415","lon":18.59795,"address":"Abborrvägen 4","startPrice":2875000,"hood":"Viksjö Hummelmora","lat":59.46347,"url":"\/beskrivning\/1151415?r=2","squareMeters":141}
{"fee":0,"id":"1171115","lon":17.890556,"address":"Ekvägen 8","startPrice":2695000,"hood":"Barkarby","lat":59.41861,"url":"\/beskrivning\/1171115?r=2","squareMeters":74}
{"fee":0,"id":"1178435","lon":17.7800994,"address":"Trumpetvägen 120","startPrice":2595000,"hood":"Viksjö","lat":59.4015577,"url":"\/beskrivning\/1178435?r=2","squareMeters":124}
{"fee":0,"id":"1184324","lon":17.7933563,"address":"Notgränd 10","startPrice":2790000,"hood":"Viksjö","lat":59.4054448,"url":"\/beskrivning\/1184324?r=2","squareMeters":142}
{"fee":0,"id":"1155418","lon":17.8392451,"address":"Gryningsvägen 5","startPrice":3175000,"hood":"Västra Jakobsberg","lat":59.4224568,"url":"\/beskrivning\/1155418?r=2","squareMeters":139}
{"fee":0,"id":"1152756","lon":17.8295896,"address":"Snövägen 18","startPrice":2895000,"hood":"Jakobsberg - Berghem","lat":58.8573393,"url":"\/beskrivning\/1152756?r=2","squareMeters":125}
{"fee":0,"id":"1006358","lon":18.59795,"address":"Fiskargränd 31","startPrice":2495000,"hood":"Viksjö Hummelmora","lat":59.46347,"url":"\/beskrivning\/1006358?r=2","squareMeters":93}
{"fee":0,"id":"1181315","lon":17.8474177,"address":"Ekstrandsvägen 30","startPrice":3395000,"hood":"Skälby","lat":59.3894185,"url":"\/beskrivning\/1181315?r=2","squareMeters":108}
{"fee":0,"id":"1122335","lon":17.8054543,"address":"Soldat Ståhls Gränd 4","startPrice":3995000,"hood":"Stäket","lat":59.4673942,"url":"\/beskrivning\/1122335?r=2","squareMeters":135}
{"fee":0,"id":"1161190","lon":17.8369098,"address":"Capellavägen 42","startPrice":2495000,"hood":"Skälby","lat":59.3831142,"url":"\/beskrivning\/1161190?r=2","squareMeters":127}
{"fee":0,"id":"686393","lon":17.925209,"address":"Hönsgärde 205","startPrice":5975000,"hood":"Husby","lat":59.410285,"url":"\/beskrivning\/686393?r=2","squareMeters":184}
{"fee":0,"id":"938887","lon":18.1436877,"address":"Mosstorp","startPrice":10900000,"hood":"Lidingö","lat":59.358443,"url":"\/beskrivning\/938887?r=2","squareMeters":222}
{"fee":0,"id":"1185195","lon":18.0644881,"address":"Seglarvägen 3b","startPrice":8975000,"hood":"Brevik\/Högberga","lat":59.3327881,"url":"\/beskrivning\/1185195?r=2","squareMeters":205}
{"fee":0,"id":"1081901","lon":18.1662423,"address":"Sveavägen 39","startPrice":8350000,"hood":"Lidingö\/Skärsätra","lat":59.3479001,"url":"\/beskrivning\/1081901?r=2","squareMeters":269}
{"fee":0,"id":"1075958","lon":18.143372,"address":"Trolldalsvägen 16","startPrice":10100000,"hood":"Trolldalen","lat":59.3869751,"url":"\/beskrivning\/1075958?r=2","squareMeters":200}
{"fee":0,"id":"895579","lon":18.2019299,"address":"Grindstigen 4","startPrice":22500000,"hood":"Lidingö - Högberga","lat":59.3392575,"url":"\/beskrivning\/895579?r=2","squareMeters":300}
{"fee":0,"id":"1181898","lon":18.0644881,"address":"Killingevägen 43","startPrice":5600000,"hood":"Killinge","lat":59.3327881,"url":"\/beskrivning\/1181898?r=2","squareMeters":115}
{"fee":0,"id":"951615","lon":18.0644881,"address":"Gåshaga Brygga 10","startPrice":10695000,"hood":"Gåshaga Brygga","lat":59.3327881,"url":"\/beskrivning\/951615?r=2","squareMeters":229}
{"fee":0,"id":"1169816","lon":18.0644881,"address":"Ryttarvägen 6","startPrice":5400000,"hood":"Centralt på ön","lat":59.3327881,"url":"\/beskrivning\/1169816?r=2","squareMeters":125}
{"fee":0,"id":"1070517","lon":18.1861272,"address":"Mölnavägen 16","startPrice":16800000,"hood":"Lidingö - Mölna","lat":59.3407063,"url":"\/beskrivning\/1070517?r=2","squareMeters":249}
{"fee":0,"id":"1182575","lon":18.2172865,"address":"Klövervägen 24","startPrice":8950000,"hood":"Brevik","lat":59.3464569,"url":"\/beskrivning\/1182575?r=2","squareMeters":200}
{"fee":0,"id":"1121455","lon":18.229181,"address":"Ottfjällsvägen 21","startPrice":3995000,"hood":"Saltsjö-Boo","lat":59.3072137,"url":"\/beskrivning\/1121455?r=2","squareMeters":129}
{"fee":5084,"id":"1185156","lon":18.2452679,"address":"Norrholmsvägen 59","startPrice":2395000,"hood":"Östra Orminge","lat":59.330365,"url":"\/beskrivning\/1185156?r=2","squareMeters":115}
{"fee":0,"id":"1177435","lon":18.2739637,"address":"Sätravägen 5","startPrice":8900000,"hood":"Saltsjöbaden - Igelboda","lat":59.2931345,"url":"\/beskrivning\/1177435?r=2","squareMeters":236}
{"fee":0,"id":"1169476","lon":18.1857507,"address":"Högvägen 14","startPrice":3950000,"hood":"Skogalund","lat":59.3124521,"url":"\/beskrivning\/1169476?r=2","squareMeters":91}
{"fee":0,"id":"1142856","lon":18.3342697,"address":"Ryssvägen 1a","startPrice":15000000,"hood":"Älgö - Saltsjöbaden","lat":59.2683703,"url":"\/beskrivning\/1142856?r=2","squareMeters":253}
{"fee":0,"id":"1150395","lon":18.0644881,"address":"Mellanvägen 1","startPrice":4800000,"hood":"Lännersta","lat":59.3327881,"url":"\/beskrivning\/1150395?r=2","squareMeters":169}
{"fee":0,"id":"1092281","lon":18.3562984,"address":"Alfredsrovägen 16","startPrice":5900000,"hood":"Saltsjöbaden\/Älgö","lat":59.2648208,"url":"\/beskrivning\/1092281?r=2","squareMeters":1175}
{"fee":0,"id":"1181416","lon":18.2747303,"address":"Sommarvindsvägen 17","startPrice":4500000,"hood":"Saltsjöbaden\/Igelboda","lat":59.2894977,"url":"\/beskrivning\/1181416?r=2","squareMeters":144}
{"fee":0,"id":"1183095","lon":18.0644881,"address":"Hasseluddsvägen 150A","startPrice":6900000,"hood":"Hasseludden","lat":59.3327881,"url":"\/beskrivning\/1183095?r=2","squareMeters":160}
{"fee":0,"id":"916838","lon":18.265149,"address":"Beatebergsvägen 7","startPrice":6500000,"hood":"Saltsjö-Boo \/ Kummelnäs","lat":59.3528258,"url":"\/beskrivning\/916838?r=2","squareMeters":0}
{"fee":0,"id":"1061915","lon":18.0644881,"address":"Boo Strandväg 40","startPrice":3995000,"hood":"Eriksvik","lat":59.3327881,"url":"\/beskrivning\/1061915?r=2","squareMeters":100}
{"fee":0,"id":"885596","lon":18.0644881,"address":"Risbergsstigen 8","startPrice":12750000,"hood":"Vikingshill - sjötomt","lat":59.3327881,"url":"\/beskrivning\/885596?r=2","squareMeters":180}
{"fee":0,"id":"1184799","lon":18.1934075,"address":"Tallmovägen 10","startPrice":5450000,"hood":"Skogalund","lat":59.3127945,"url":"\/beskrivning\/1184799?r=2","squareMeters":132}
{"fee":0,"id":"1068816","lon":18.0644881,"address":"Skepparholmsvägen 7","startPrice":4500000,"hood":"Hasseludden","lat":59.3327881,"url":"\/beskrivning\/1068816?r=2","squareMeters":0}
{"fee":0,"id":"1116015","lon":18.0644881,"address":"Talluddsvägen 72","startPrice":6950000,"hood":"Lilla Björknäs","lat":59.3327881,"url":"\/beskrivning\/1116015?r=2","squareMeters":125}
{"fee":0,"id":"1173635","lon":18.0644881,"address":"Kärrstigen 35","startPrice":4790000,"hood":"Björknäs","lat":59.3327881,"url":"\/beskrivning\/1173635?r=2","squareMeters":120}
{"fee":0,"id":"1141516","lon":18.0644881,"address":"Stiltjevägen 14","startPrice":3950000,"hood":"Mensättra","lat":59.3327881,"url":"\/beskrivning\/1141516?r=2","squareMeters":159}
{"fee":0,"id":"1184603","lon":18.2792644,"address":"Ringduvevägen 1 A","startPrice":3500000,"hood":"Boo Gård","lat":59.312416,"url":"\/beskrivning\/1184603?r=2","squareMeters":0}
{"fee":0,"id":"1145495","lon":18.190689,"address":"Skogalundsvägen 3 - ACCEPTPRIS","startPrice":6275000,"hood":"Skogalund","lat":59.3146603,"url":"\/beskrivning\/1145495?r=2","squareMeters":245}
{"fee":0,"id":"1171657","lon":18.0644881,"address":"Prästgårdsvägen 2","startPrice":6000000,"hood":"Storängen","lat":59.3327881,"url":"\/beskrivning\/1171657?r=2","squareMeters":159}
{"fee":0,"id":"1183903","lon":18.0644881,"address":"Vråkvägen 6b","startPrice":3250000,"hood":"Lännersta","lat":59.3327881,"url":"\/beskrivning\/1183903?r=2","squareMeters":80}
{"fee":5032,"id":"1185360","lon":18.3068322,"address":"Ringvägen 22","startPrice":3450000,"hood":"Saltsjöbaden - Rösunda","lat":59.2811817,"url":"\/beskrivning\/1185360?r=2","squareMeters":90}
{"fee":0,"id":"1167864","lon":18.2452679,"address":"Norrholmsvägen 128","startPrice":2775000,"hood":"Östra Orminge","lat":59.330365,"url":"\/beskrivning\/1167864?r=2","squareMeters":110}
{"fee":0,"id":"841398","lon":18.2391523,"address":"Villa Ulfvik","startPrice":16000000,"hood":"Saltsjö-Boo","lat":59.3467515,"url":"\/beskrivning\/841398?r=2","squareMeters":126}
{"fee":0,"id":"1158058","lon":18.2336381,"address":"Skogdalsvägen 4","startPrice":2250000,"hood":"Saltsjö-Boo","lat":59.3170283,"url":"\/beskrivning\/1158058?r=2","squareMeters":72}
{"fee":0,"id":"1157278","lon":18.7241683,"address":"Titanvägen 27","startPrice":1775000,"hood":"Solbacka","lat":59.7757099,"url":"\/beskrivning\/1157278?r=2","squareMeters":110}
{"fee":0,"id":"725158","lon":18.0644881,"address":"Simpnäs","startPrice":895000,"hood":"Björkö - Simpnäs","lat":59.3327881,"url":"\/beskrivning\/725158?r=2","squareMeters":65}
{"fee":0,"id":"562667","lon":18.616722,"address":"Lundvägen 19","startPrice":595000,"hood":"Häverödal","lat":60.0310771,"url":"\/beskrivning\/562667?r=2","squareMeters":150}
{"fee":0,"id":"901016","lon":18.3568536,"address":"Tomtebovägen 29","startPrice":1380000,"hood":"Rimbo","lat":59.7404057,"url":"\/beskrivning\/901016?r=2","squareMeters":87}
{"fee":0,"id":"887079","lon":18.6256822,"address":"Johannisberg 2007","startPrice":1990000,"hood":"Bergshamra","lat":59.6396249,"url":"\/beskrivning\/887079?r=2","squareMeters":126}
{"fee":0,"id":"963723","lon":18.6039183,"address":"Karolinavägen 10","startPrice":895000,"hood":"Häverödal","lat":60.0418207,"url":"\/beskrivning\/963723?r=2","squareMeters":145}
{"fee":0,"id":"829675","lon":18.0644881,"address":"Tjockö","startPrice":5900000,"hood":"Tjockö, skärgård","lat":59.3327881,"url":"\/beskrivning\/829675?r=2","squareMeters":76}
{"fee":0,"id":"997178","lon":18.7149972,"address":"Gustaf Adolfs Väg 4 C","startPrice":2625000,"hood":"Kvisthamra","lat":59.7540267,"url":"\/beskrivning\/997178?r=2","squareMeters":160}
{"fee":0,"id":"1048412","lon":18.0644881,"address":"Kundby 5182","startPrice":2995000,"hood":"Rimbo - Kundby","lat":59.3327881,"url":"\/beskrivning\/1048412?r=2","squareMeters":146}
{"fee":0,"id":"1183460","lon":18.0644881,"address":"Norrsjöviken","startPrice":5975000,"hood":"Rådmansö, Lågarö","lat":59.3327881,"url":"\/beskrivning\/1183460?r=2","squareMeters":270}
{"fee":0,"id":"936215","lon":18.4954001,"address":"Birgittavägen 25","startPrice":1975000,"hood":"Finsta","lat":59.7365402,"url":"\/beskrivning\/936215?r=2","squareMeters":134}
{"fee":0,"id":"1146535","lon":18.5951368,"address":"Tulka 1702","startPrice":995000,"hood":"Tulka","lat":60.0666466,"url":"\/beskrivning\/1146535?r=2","squareMeters":170}
{"fee":0,"id":"859965","lon":18.0644881,"address":"Frubol 8720","startPrice":1075000,"hood":"Gottröra - Frubol","lat":59.3327881,"url":"\/beskrivning\/859965?r=2","squareMeters":60}
{"fee":0,"id":"936056","lon":18.0644881,"address":"Skarsjövägen 4","startPrice":1750000,"hood":"Rimbo, Bålbro","lat":59.3327881,"url":"\/beskrivning\/936056?r=2","squareMeters":132}
{"fee":0,"id":"654278","lon":18.0496531,"address":"Nysättra Kvarn 1:57","startPrice":2640000,"hood":"Nysättra","lat":59.2122094,"url":"\/beskrivning\/654278?r=2","squareMeters":92}
{"fee":0,"id":"1148296","lon":18.0644881,"address":"Kvilunda 3021","startPrice":12000000,"hood":"Norrtälje - Kvilunda","lat":59.3327881,"url":"\/beskrivning\/1148296?r=2","squareMeters":350}
{"fee":0,"id":"568369","lon":18.6413571,"address":"Undra 4:8","startPrice":985000,"hood":"Undra Malsta","lat":59.7735895,"url":"\/beskrivning\/568369?r=2","squareMeters":175}
{"fee":0,"id":"656262","lon":18.6752307,"address":"Havsjövägen, Sveden","startPrice":18000000,"hood":"Vettershaga","lat":59.6082086,"url":"\/beskrivning\/656262?r=2","squareMeters":250}
{"fee":0,"id":"1161638","lon":18.0644881,"address":"Hattudden","startPrice":2100000,"hood":"Hattudden","lat":59.3327881,"url":"\/beskrivning\/1161638?r=2","squareMeters":85}
{"fee":0,"id":"1135015","lon":17.7287442,"address":"Hästhagen 8","startPrice":3900000,"hood":"","lat":59.0973295,"url":"\/beskrivning\/1135015?r=2","squareMeters":195}
{"fee":0,"id":"1161109","lon":18.0644881,"address":"Hattudden","startPrice":2100000,"hood":"Hattudden","lat":59.3327881,"url":"\/beskrivning\/1161109?r=2","squareMeters":85}
{"fee":0,"id":"968820","lon":18.0644881,"address":"V:a Rickeby 8328","startPrice":1025000,"hood":"V:a Rickeby - Gottröra","lat":59.3327881,"url":"\/beskrivning\/968820?r=2","squareMeters":74}
{"fee":0,"id":"807260","lon":18.6052147,"address":"Östervägen 21","startPrice":1050000,"hood":"Häverödal","lat":60.0337437,"url":"\/beskrivning\/807260?r=2","squareMeters":79}
{"fee":0,"id":"1154799","lon":18.6704176,"address":"Pl 507","startPrice":1695000,"hood":"Norra Nånö","lat":59.786391,"url":"\/beskrivning\/1154799?r=2","squareMeters":108}
{"fee":0,"id":"940585","lon":18.774516,"address":"Hagmyra 327","startPrice":1750000,"hood":"Väddö, Tomta","lat":60.0777919,"url":"\/beskrivning\/940585?r=2","squareMeters":151}
{"fee":0,"id":"659534","lon":18.0644881,"address":"Söderbykarl 8301","startPrice":895000,"hood":"Söderbykarl","lat":59.3327881,"url":"\/beskrivning\/659534?r=2","squareMeters":120}
{"fee":0,"id":"619455","lon":18.6053678,"address":"Edebovägen 9A","startPrice":2590000,"hood":"Häverödal","lat":60.0260734,"url":"\/beskrivning\/619455?r=2","squareMeters":445}
{"fee":0,"id":"650649","lon":18.6455973,"address":"Pl 9205","startPrice":2395000,"hood":"Herräng","lat":60.1350676,"url":"\/beskrivning\/650649?r=2","squareMeters":67}
{"fee":0,"id":"991875","lon":19.0325391,"address":"Gräddö Postlåda 2027","startPrice":2495000,"hood":"Rådmansö, Gräddö","lat":59.7632306,"url":"\/beskrivning\/991875?r=2","squareMeters":145}
{"fee":0,"id":"680049","lon":18.7276491,"address":"","startPrice":2550000,"hood":"Solbacka - Norrtälje","lat":59.7742215,"url":"\/beskrivning\/680049?r=2","squareMeters":0}
{"fee":0,"id":"909615","lon":18.0644881,"address":"Mälhamra 2789","startPrice":1875000,"hood":"Närtuna Mälhamra","lat":59.3327881,"url":"\/beskrivning\/909615?r=2","squareMeters":170}
{"fee":0,"id":"1177015","lon":18.7282542,"address":"Merkuriusvägen 14","startPrice":1695000,"hood":"Solbacka","lat":59.7715102,"url":"\/beskrivning\/1177015?r=2","squareMeters":135}
{"fee":0,"id":"962799","lon":18.3717784,"address":"Allévägen 13","startPrice":1895000,"hood":"Rimbo","lat":59.7476938,"url":"\/beskrivning\/962799?r=2","squareMeters":146}
{"fee":0,"id":"1166755","lon":18.0644881,"address":"Kvilunda 3022","startPrice":1995000,"hood":"Kvilunda","lat":59.3327881,"url":"\/beskrivning\/1166755?r=2","squareMeters":179}
{"fee":0,"id":"949145","lon":17.835981,"address":"Sättra 1831","startPrice":550000,"hood":"SÄTTRA","lat":59.5325917,"url":"\/beskrivning\/949145?r=2","squareMeters":92}
{"fee":0,"id":"1054495","lon":18.0644881,"address":"Lagboda 2883 A","startPrice":1495000,"hood":"Bergshamra, Lagboda","lat":59.3327881,"url":"\/beskrivning\/1054495?r=2","squareMeters":101}
{"fee":0,"id":"876657","lon":18.601342,"address":"Gottstavägen 55","startPrice":1650000,"hood":"Hallstavik","lat":60.0405488,"url":"\/beskrivning\/876657?r=2","squareMeters":157}
{"fee":0,"id":"889491","lon":18.6044329,"address":"Moränvägen 8","startPrice":885000,"hood":"Hallstavik","lat":60.0497867,"url":"\/beskrivning\/889491?r=2","squareMeters":130}
{"fee":0,"id":"1118595","lon":18.5969369,"address":"Roslagsvägen 7","startPrice":3000000,"hood":"Hallstavik","lat":60.0558888,"url":"\/beskrivning\/1118595?r=2","squareMeters":400}
{"fee":0,"id":"553650","lon":18.6028588,"address":"Skogsvägen 17","startPrice":2460000,"hood":"Rimbo","lat":60.0520424,"url":"\/beskrivning\/553650?r=2","squareMeters":1297}
{"fee":0,"id":"582646","lon":18.0644881,"address":"PL 9608","startPrice":6800000,"hood":"Rådmansö","lat":59.3327881,"url":"\/beskrivning\/582646?r=2","squareMeters":443}
{"fee":0,"id":"586589","lon":18.6056924,"address":"Gottstavägen 118","startPrice":1500000,"hood":"Häverödal","lat":60.0292727,"url":"\/beskrivning\/586589?r=2","squareMeters":0}
{"fee":0,"id":"621700","lon":18.0644881,"address":"Norrbacka 8052","startPrice":2100000,"hood":"Gottröra","lat":59.3327881,"url":"\/beskrivning\/621700?r=2","squareMeters":97}
{"fee":0,"id":"912608","lon":18.7112656,"address":"Klippgatan 2","startPrice":5700000,"hood":"Kvisthamra","lat":59.754723,"url":"\/beskrivning\/912608?r=2","squareMeters":220}
{"fee":0,"id":"897855","lon":18.6037549,"address":"Skogsvägen 10","startPrice":595000,"hood":"Hallstavik","lat":60.053679,"url":"\/beskrivning\/897855?r=2","squareMeters":78}
{"fee":0,"id":"1005116","lon":18.7051465,"address":"Göringe 2063","startPrice":1495000,"hood":"Häverö","lat":59.7579132,"url":"\/beskrivning\/1005116?r=2","squareMeters":106}
{"fee":0,"id":"553642","lon":18.3443876,"address":"Skogsvägen 5","startPrice":2410000,"hood":"Rimbo","lat":59.746406,"url":"\/beskrivning\/553642?r=2","squareMeters":1713}
{"fee":0,"id":"952856","lon":18.8052482,"address":"Norrby 2457 C","startPrice":800000,"hood":"Grisslehamn","lat":60.1016866,"url":"\/beskrivning\/952856?r=2","squareMeters":59}
{"fee":0,"id":"886468","lon":18.0644881,"address":"Abrahamsby Pl 8800","startPrice":1295000,"hood":"Gottröra","lat":59.3327881,"url":"\/beskrivning\/886468?r=2","squareMeters":121}
{"fee":0,"id":"671769","lon":18.0644881,"address":"Norrbyggeby 1324","startPrice":1450000,"hood":"Norrbyggeby","lat":59.3327881,"url":"\/beskrivning\/671769?r=2","squareMeters":100}
{"fee":0,"id":"834576","lon":18.6039263,"address":"Furuvägen 23","startPrice":850000,"hood":"Hallstavik","lat":60.0588843,"url":"\/beskrivning\/834576?r=2","squareMeters":152}
{"fee":0,"id":"949675","lon":18.4937919,"address":"Edsbro-Uppsalavägen 9","startPrice":790000,"hood":"Edsbro","lat":59.8965886,"url":"\/beskrivning\/949675?r=2","squareMeters":146}
{"fee":0,"id":"568192","lon":18.6042122,"address":"Skogsvägen 21","startPrice":875000,"hood":"Hallstavik","lat":60.0548369,"url":"\/beskrivning\/568192?r=2","squareMeters":102}
{"fee":0,"id":"886489","lon":17.9511292,"address":"Vidbynäs","startPrice":4546300,"hood":"Vidbynäs","lat":58.9597244,"url":"\/beskrivning\/886489?r=2","squareMeters":192}
{"fee":0,"id":"1003221","lon":17.4225668,"address":"Salladsvägen 8","startPrice":4495000,"hood":"Nykvarn","lat":59.1717648,"url":"\/beskrivning\/1003221?r=2","squareMeters":155}
{"fee":0,"id":"1166120","lon":18.0644881,"address":"Sleipners Väg 33 Såld, visning inst","startPrice":2450000,"hood":"","lat":59.3327881,"url":"\/beskrivning\/1166120?r=2","squareMeters":120}
{"fee":0,"id":"886586","lon":17.9511292,"address":"Vidbynäs","startPrice":4321000,"hood":"Vidbynäs","lat":58.9597244,"url":"\/beskrivning\/886586?r=2","squareMeters":178}
{"fee":0,"id":"882968","lon":17.9511292,"address":"Vidbynäs","startPrice":4150000,"hood":"Vidbynäs","lat":58.9597244,"url":"\/beskrivning\/882968?r=2","squareMeters":167}
{"fee":0,"id":"806527","lon":18.0644881,"address":"Posses Väg 12","startPrice":630000,"hood":"Nygårds backar","lat":59.3327881,"url":"\/beskrivning\/806527?r=2","squareMeters":0}
{"fee":0,"id":"1027896","lon":17.4327452,"address":"Hökmossvägen 9c","startPrice":4300000,"hood":"Centralt - Nykvarn","lat":59.1776074,"url":"\/beskrivning\/1027896?r=2","squareMeters":182}
{"fee":0,"id":"883983","lon":17.9511292,"address":"Vidbynäs","startPrice":4324000,"hood":"Vidbynäs","lat":58.9597244,"url":"\/beskrivning\/883983?r=2","squareMeters":146}
{"fee":0,"id":"882806","lon":17.9511292,"address":"Vidbynäs","startPrice":4189000,"hood":"Vidbynäs","lat":58.9597244,"url":"\/beskrivning\/882806?r=2","squareMeters":142}
{"fee":0,"id":"847701","lon":17.2768149,"address":"Ramtorpsvägen 8","startPrice":3495000,"hood":"Taxinge","lat":59.2034501,"url":"\/beskrivning\/847701?r=2","squareMeters":196}
{"fee":0,"id":"1095335","lon":17.3769748,"address":"Smultronvägen 43","startPrice":1895000,"hood":"Nykvarn Sandtorp","lat":59.296198,"url":"\/beskrivning\/1095335?r=2","squareMeters":101}
{"fee":0,"id":"1057115","lon":17.4439802,"address":"Havrevägen 1","startPrice":3375000,"hood":"Nykvarn","lat":59.1725479,"url":"\/beskrivning\/1057115?r=2","squareMeters":148}
{"fee":0,"id":"1183657","lon":17.9205556,"address":"Sätravägen 21","startPrice":2695000,"hood":"NYKVARN Sätra","lat":59.2852778,"url":"\/beskrivning\/1183657?r=2","squareMeters":121}
{"fee":0,"id":"1027156","lon":17.4274642,"address":"Furuborgsvägen 9","startPrice":1795000,"hood":"NYKVARN Furuborg","lat":59.1837285,"url":"\/beskrivning\/1027156?r=2","squareMeters":85}
{"fee":0,"id":"1156195","lon":18.0644881,"address":"Korpslingan 33","startPrice":3575000,"hood":"Segersäng by","lat":59.3327881,"url":"\/beskrivning\/1156195?r=2","squareMeters":158}
{"fee":0,"id":"958937","lon":17.9491539,"address":"Hacktorpsvägen 12","startPrice":2950000,"hood":"Norra Nynäshamn","lat":58.9033867,"url":"\/beskrivning\/958937?r=2","squareMeters":137}
{"fee":0,"id":"554043","lon":17.91135,"address":"Åvägen 57","startPrice":2736000,"hood":"Lidatorp","lat":58.9605034,"url":"\/beskrivning\/554043?r=2","squareMeters":141}
{"fee":0,"id":"649458","lon":18.0644881,"address":"Björsholmsvägen 270","startPrice":17500000,"hood":"Lisö","lat":59.3327881,"url":"\/beskrivning\/649458?r=2","squareMeters":208}
{"fee":0,"id":"1156821","lon":17.9109685,"address":"Åvägen 48","startPrice":1795000,"hood":"Lidatorp","lat":58.961659,"url":"\/beskrivning\/1156821?r=2","squareMeters":124}
{"fee":0,"id":"839935","lon":17.7991397,"address":"Gudby 13","startPrice":2300000,"hood":"Sorunda","lat":59.0162652,"url":"\/beskrivning\/839935?r=2","squareMeters":109}
{"fee":6280,"id":"1164595","lon":18.0644881,"address":"Skogagatan 7b","startPrice":1485000,"hood":"Centralt","lat":59.3327881,"url":"\/beskrivning\/1164595?r=2","squareMeters":95}
{"fee":0,"id":"1164555","lon":17.8162156,"address":"Aska Byväg 18","startPrice":3100000,"hood":"Aska By Sorunda","lat":59.0520261,"url":"\/beskrivning\/1164555?r=2","squareMeters":158}
{"fee":0,"id":"1166360","lon":18.912837,"address":"Durkvägen 22","startPrice":1695000,"hood":"Sandhamn","lat":59.2874428,"url":"\/beskrivning\/1166360?r=2","squareMeters":110}
{"fee":0,"id":"1138598","lon":17.9543702,"address":"Skeppargatan 4","startPrice":5500000,"hood":"Nynäshamn","lat":58.905063,"url":"\/beskrivning\/1138598?r=2","squareMeters":167}
{"fee":0,"id":"683233","lon":17.8908369,"address":"Norra Rangsta 13","startPrice":2450000,"hood":"Grödby","lat":59.0497264,"url":"\/beskrivning\/683233?r=2","squareMeters":180}
{"fee":0,"id":"1010397","lon":17.9491539,"address":"Lövlundsvägen 45","startPrice":5500000,"hood":"Centrala Nynäshamn","lat":58.9033867,"url":"\/beskrivning\/1010397?r=2","squareMeters":189}
{"fee":0,"id":"1152977","lon":17.8125533,"address":"Violstigen 6","startPrice":1400000,"hood":"Ösmo","lat":58.9625398,"url":"\/beskrivning\/1152977?r=2","squareMeters":49}
{"fee":0,"id":"1010835","lon":17.8712572,"address":"Segersängsvägen 25","startPrice":3175000,"hood":"Grödby","lat":59.049034,"url":"\/beskrivning\/1010835?r=2","squareMeters":302}
{"fee":0,"id":"725065","lon":17.9545344,"address":"Elvingebacken 1","startPrice":1695000,"hood":"Norra Sorunda","lat":59.0990095,"url":"\/beskrivning\/725065?r=2","squareMeters":72}
{"fee":0,"id":"1157797","lon":17.8923663,"address":"Ugglevägen 4","startPrice":2750000,"hood":"Ösmo Centralt","lat":58.9871127,"url":"\/beskrivning\/1157797?r=2","squareMeters":96}
{"fee":0,"id":"1181356","lon":17.8276833,"address":"Sunnerbyvägen 29","startPrice":1795000,"hood":"Sorunda - Sunnerby","lat":59.0230358,"url":"\/beskrivning\/1181356?r=2","squareMeters":155}
{"fee":0,"id":"681651","lon":17.7822002,"address":"Wingårdhsvägen 9","startPrice":2300000,"hood":"","lat":58.9582169,"url":"\/beskrivning\/681651?r=2","squareMeters":0}
{"fee":0,"id":"926805","lon":17.9395388,"address":"Linnéastigen 16","startPrice":1995000,"hood":"Nynäshamn\/Centralt","lat":58.8971273,"url":"\/beskrivning\/926805?r=2","squareMeters":126}
{"fee":0,"id":"1161367","lon":17.8350807,"address":"Hedstigen 4","startPrice":1700000,"hood":"Sunnerby","lat":59.0194159,"url":"\/beskrivning\/1161367?r=2","squareMeters":143}
{"fee":0,"id":"1025956","lon":17.7745668,"address":"Fasanstigen 68","startPrice":2275000,"hood":"Salem","lat":59.1976013,"url":"\/beskrivning\/1025956?r=2","squareMeters":118}
{"fee":0,"id":"1168095","lon":18.0719057,"address":"Söderby Torgs Allé 54","startPrice":3995000,"hood":"Söderby","lat":59.0538999,"url":"\/beskrivning\/1168095?r=2","squareMeters":134}
{"fee":0,"id":"1181117","lon":17.7310139,"address":"Rönningevägen 61C","startPrice":1990000,"hood":"Rönninge","lat":59.2003912,"url":"\/beskrivning\/1181117?r=2","squareMeters":120}
{"fee":0,"id":"1173016","lon":17.7302144,"address":"Tallsätravägen 26","startPrice":2795000,"hood":"Rönninge","lat":59.1923647,"url":"\/beskrivning\/1173016?r=2","squareMeters":136}
{"fee":0,"id":"1003323","lon":17.7719151,"address":"Fasanstigen 47","startPrice":1595000,"hood":"Salem","lat":59.1976782,"url":"\/beskrivning\/1003323?r=2","squareMeters":116}
{"fee":0,"id":"1179937","lon":17.750097,"address":"Lustigknoppsvägen 10","startPrice":3995000,"hood":"Rönninge","lat":59.1878494,"url":"\/beskrivning\/1179937?r=2","squareMeters":155}
{"fee":3699,"id":"1064757","lon":17.7801786,"address":"Målarstigen 7","startPrice":1395000,"hood":"Salem","lat":59.1997038,"url":"\/beskrivning\/1064757?r=2","squareMeters":105}
{"fee":0,"id":"1168418","lon":18.0644881,"address":"Uttringevägen 34","startPrice":3300000,"hood":"Uttringe","lat":59.3327881,"url":"\/beskrivning\/1168418?r=2","squareMeters":128}
{"fee":0,"id":"1109755","lon":17.764599,"address":"Blåbärsstigen 49","startPrice":2350000,"hood":"Salem","lat":59.2085885,"url":"\/beskrivning\/1109755?r=2","squareMeters":126}
{"fee":0,"id":"1152035","lon":17.738554,"address":"Hemtorpsvägen 3","startPrice":4900000,"hood":"RÖNNINGE","lat":59.1912418,"url":"\/beskrivning\/1152035?r=2","squareMeters":219}
{"fee":0,"id":"1120938","lon":17.7534749,"address":"Bistigen 15","startPrice":1995000,"hood":"Salem","lat":59.2011813,"url":"\/beskrivning\/1120938?r=2","squareMeters":125}
{"fee":3374,"id":"1151956","lon":17.7660012,"address":"Jägarstigen 33","startPrice":1000000,"hood":"SALEM","lat":59.2040445,"url":"\/beskrivning\/1151956?r=2","squareMeters":93}
{"fee":0,"id":"1152055","lon":17.7641568,"address":"Domherrestigen 32","startPrice":1980000,"hood":"SALEM","lat":59.194951,"url":"\/beskrivning\/1152055?r=2","squareMeters":135}
{"fee":4288,"id":"1153135","lon":17.7589957,"address":"Bondestigen 57","startPrice":1350000,"hood":"Salem","lat":59.2085619,"url":"\/beskrivning\/1153135?r=2","squareMeters":120}
{"fee":0,"id":"1169338","lon":17.7311265,"address":"Ekbacksvägen 17","startPrice":2375000,"hood":"Rönninge","lat":59.1843122,"url":"\/beskrivning\/1169338?r=2","squareMeters":130}
{"fee":4288,"id":"1153155","lon":17.76203,"address":"Torparstigen 32","startPrice":1395000,"hood":"Salem","lat":59.2062555,"url":"\/beskrivning\/1153155?r=2","squareMeters":120}
{"fee":0,"id":"1152435","lon":17.7786872,"address":"Järpstigen 14","startPrice":1695000,"hood":"Salem","lat":59.1971624,"url":"\/beskrivning\/1152435?r=2","squareMeters":111}
{"fee":0,"id":"1049235","lon":17.7273266,"address":"Flatenvägen 10","startPrice":5550000,"hood":"Rönninge","lat":59.196151,"url":"\/beskrivning\/1049235?r=2","squareMeters":175}
{"fee":0,"id":"1034955","lon":18.013593,"address":"Åsby 755","startPrice":2200000,"hood":"Märsta - Vidbo","lat":59.712378,"url":"\/beskrivning\/1034955?r=2","squareMeters":112}
{"fee":0,"id":"862897","lon":17.8027252,"address":"Oriongatan 243","startPrice":1795000,"hood":"Märsta - Östra Steninge","lat":59.6020259,"url":"\/beskrivning\/862897?r=2","squareMeters":101}
{"fee":0,"id":"1150695","lon":17.7083708,"address":"Sankt Persgatan 37","startPrice":3850000,"hood":"Sigtuna-Staden","lat":59.6195438,"url":"\/beskrivning\/1150695?r=2","squareMeters":157}
{"fee":5665,"id":"1103055","lon":17.7566703,"address":"Gnejsvägen 11C","startPrice":1450000,"hood":"Sigtuna - Til","lat":59.6227991,"url":"\/beskrivning\/1103055?r=2","squareMeters":995}
{"fee":0,"id":"869944","lon":17.807654,"address":"Steninge","startPrice":18000000,"hood":"Steninge","lat":59.6027528,"url":"\/beskrivning\/869944?r=2","squareMeters":600}
{"fee":0,"id":"1105216","lon":17.7239649,"address":"Fågelsångsvägen 7","startPrice":7100000,"hood":"Centrala Sigtuna","lat":59.6173358,"url":"\/beskrivning\/1105216?r=2","squareMeters":164}
{"fee":0,"id":"930032","lon":18.4260947,"address":"Ekvägen 11","startPrice":3200000,"hood":"Märsta - Norrbacka","lat":59.5377478,"url":"\/beskrivning\/930032?r=2","squareMeters":150}
{"fee":0,"id":"868107","lon":17.7239649,"address":"Fredriksbergsvägen 22","startPrice":6300000,"hood":"Centrala Sigtuna","lat":59.6173358,"url":"\/beskrivning\/868107?r=2","squareMeters":202}
{"fee":0,"id":"1099195","lon":17.7239649,"address":"Stora Gatan 50","startPrice":5700000,"hood":"Centrala Sigtuna","lat":59.6173358,"url":"\/beskrivning\/1099195?r=2","squareMeters":80}
{"fee":0,"id":"1179237","lon":17.8175237,"address":"Siriusgatan 84","startPrice":895000,"hood":"Märsta - Steninge","lat":59.6159457,"url":"\/beskrivning\/1179237?r=2","squareMeters":131}
{"fee":0,"id":"867498","lon":18.0644881,"address":"Lillgärdet, Skepptuna Bergby 840","startPrice":2600000,"hood":"Märsta - Skepptuna","lat":59.3327881,"url":"\/beskrivning\/867498?r=2","squareMeters":109}
{"fee":0,"id":"1039475","lon":17.7163215,"address":"Lilla Brännbovägen 17","startPrice":2650000,"hood":"Sigtuna - Brännbo","lat":59.6209611,"url":"\/beskrivning\/1039475?r=2","squareMeters":70}
{"fee":0,"id":"1095815","lon":17.8293978,"address":"Tjädervägen 13","startPrice":2395000,"hood":"Märsta - Ekilla","lat":59.6295472,"url":"\/beskrivning\/1095815?r=2","squareMeters":102}
{"fee":0,"id":"1006780","lon":17.7210325,"address":"Uppsalavägen 13","startPrice":2450000,"hood":"Sigtuna - Staden","lat":59.6246364,"url":"\/beskrivning\/1006780?r=2","squareMeters":20}
{"fee":0,"id":"1064816","lon":17.8055591,"address":"Karlavagnen 52","startPrice":3350000,"hood":"Märsta - Steninge","lat":59.6134413,"url":"\/beskrivning\/1064816?r=2","squareMeters":130}
{"fee":0,"id":"938440","lon":18.2526622,"address":"Alby 110","startPrice":2495000,"hood":"SIGTUNA ALBY","lat":59.7853468,"url":"\/beskrivning\/938440?r=2","squareMeters":115}
{"fee":0,"id":"1071397","lon":18.0644881,"address":"Odensala Mörby 354","startPrice":1700000,"hood":"","lat":59.3327881,"url":"\/beskrivning\/1071397?r=2","squareMeters":73}
{"fee":0,"id":"1004501","lon":17.8251175,"address":"Koggevägen 5","startPrice":5900000,"hood":"Sigtuna - Munkholmen","lat":59.5261823,"url":"\/beskrivning\/1004501?r=2","squareMeters":196}
{"fee":0,"id":"1070718","lon":17.6364342,"address":"Travarvägen 9","startPrice":2100000,"hood":"Sigtuna - Granby","lat":59.6563085,"url":"\/beskrivning\/1070718?r=2","squareMeters":60}
{"fee":0,"id":"882758","lon":18.0644881,"address":"Helgåby 872","startPrice":2400000,"hood":"Märsta - Skepptuna","lat":59.3327881,"url":"\/beskrivning\/882758?r=2","squareMeters":155}
{"fee":0,"id":"1164882","lon":17.7377002,"address":"Kung Olofs Väg 19","startPrice":6995000,"hood":"Sigtuna - Munkholmen","lat":59.6105378,"url":"\/beskrivning\/1164882?r=2","squareMeters":169}
{"fee":0,"id":"606785","lon":17.925209,"address":"Husby","startPrice":3700000,"hood":"","lat":59.410285,"url":"\/beskrivning\/606785?r=2","squareMeters":322}
{"fee":0,"id":"615486","lon":17.885814,"address":"Råbergsvägen 28","startPrice":8900000,"hood":"Centrala Rosersberg","lat":59.5823211,"url":"\/beskrivning\/615486?r=2","squareMeters":0}
{"fee":0,"id":"1181069","lon":18.0644881,"address":"Ryavägen 160","startPrice":3200000,"hood":"Töjnan","lat":59.3327881,"url":"\/beskrivning\/1181069?r=2","squareMeters":156}
{"fee":0,"id":"1179055","lon":18.0644881,"address":"Brunkebergsåsen 2b","startPrice":6795000,"hood":"Norviken","lat":59.3327881,"url":"\/beskrivning\/1179055?r=2","squareMeters":162}
{"fee":0,"id":"1067535","lon":18.0644881,"address":"Linnés Väg 10a","startPrice":4900000,"hood":"Häggvik","lat":59.3327881,"url":"\/beskrivning\/1067535?r=2","squareMeters":142}
{"fee":0,"id":"1186035","lon":17.9950627,"address":"Fasanvägen 17","startPrice":6900000,"hood":"Sjöberg","lat":59.4263396,"url":"\/beskrivning\/1186035?r=2","squareMeters":179}
{"fee":0,"id":"1162919","lon":17.9672196,"address":"Nyodlingsvägen 34","startPrice":2950000,"hood":"Edsviken","lat":59.4191702,"url":"\/beskrivning\/1162919?r=2","squareMeters":98}
{"fee":0,"id":"1163255","lon":18.0644881,"address":"Vattenverksvägen 17","startPrice":3250000,"hood":"Vaxmora\/ Tunberget","lat":59.3327881,"url":"\/beskrivning\/1163255?r=2","squareMeters":116}
{"fee":0,"id":"1172875","lon":18.0644881,"address":"Edsängsvägen 13b","startPrice":3800000,"hood":"Edsängen","lat":59.3327881,"url":"\/beskrivning\/1172875?r=2","squareMeters":180}
{"fee":0,"id":"1168975","lon":17.9301316,"address":"Klasrovägen 18","startPrice":3975000,"hood":"Sollentuna-Häggvik","lat":59.4419198,"url":"\/beskrivning\/1168975?r=2","squareMeters":226}
{"fee":0,"id":"1183195","lon":17.9025568,"address":"Rekrytvägen 5","startPrice":5900000,"hood":"Viby","lat":59.4505136,"url":"\/beskrivning\/1183195?r=2","squareMeters":201}
{"fee":0,"id":"1175736","lon":18.0644881,"address":"Trädgårdsvägen 134","startPrice":2595000,"hood":"Töjnan","lat":59.3327881,"url":"\/beskrivning\/1175736?r=2","squareMeters":126}
{"fee":0,"id":"1132135","lon":17.9374125,"address":"Engelbrekts Väg 121","startPrice":4375000,"hood":"Tureberg","lat":59.4353434,"url":"\/beskrivning\/1132135?r=2","squareMeters":120}
{"fee":5541,"id":"1019756","lon":18.0644881,"address":"Johannesbergsvägen 18","startPrice":4400000,"hood":"Silverdal","lat":59.3327881,"url":"\/beskrivning\/1019756?r=2","squareMeters":134}
{"fee":0,"id":"1176179","lon":17.9024339,"address":"Malungsvägen 165","startPrice":2850000,"hood":"Viby","lat":59.4618194,"url":"\/beskrivning\/1176179?r=2","squareMeters":137}
{"fee":0,"id":"1165422","lon":17.9450021,"address":"Jupitervägen 25","startPrice":4450000,"hood":"Tureberg","lat":59.4345126,"url":"\/beskrivning\/1165422?r=2","squareMeters":128}
{"fee":0,"id":"1181396","lon":17.9064584,"address":"Timotejvägen 70","startPrice":2295000,"hood":"Rotebro","lat":59.4815122,"url":"\/beskrivning\/1181396?r=2","squareMeters":117}
{"fee":0,"id":"1146655","lon":18.0644881,"address":"Östervägen 17F","startPrice":3495000,"hood":"Häggvik","lat":59.3327881,"url":"\/beskrivning\/1146655?r=2","squareMeters":121}
{"fee":0,"id":"1175957","lon":18.0644881,"address":"Holmbodavägen 28b","startPrice":5200000,"hood":"Gillbo","lat":59.3327881,"url":"\/beskrivning\/1175957?r=2","squareMeters":178}
{"fee":0,"id":"1178995","lon":18.0644881,"address":"Avtagsvägen 5b","startPrice":4975000,"hood":"Norrviken\/Häggvik","lat":59.3327881,"url":"\/beskrivning\/1178995?r=2","squareMeters":173}
{"fee":0,"id":"1164396","lon":17.9396612,"address":"Porsvägen 98","startPrice":2695000,"hood":"Vaxmora","lat":59.459722,"url":"\/beskrivning\/1164396?r=2","squareMeters":140}
{"fee":0,"id":"1165678","lon":17.9718292,"address":"Björkvägen 26","startPrice":6675000,"hood":"Fågelsången","lat":59.3638556,"url":"\/beskrivning\/1165678?r=2","squareMeters":244}
{"fee":0,"id":"840959","lon":18.0004945,"address":"Domherrevägen 10 B","startPrice":6852875,"hood":"Sollentuna - Sjöberg","lat":59.4267051,"url":"\/beskrivning\/840959?r=2","squareMeters":216}
{"fee":0,"id":"1171296","lon":17.9670248,"address":"Kummelbyvägen 18","startPrice":5475000,"hood":"Edsviken","lat":59.4169556,"url":"\/beskrivning\/1171296?r=2","squareMeters":162}
{"fee":0,"id":"1134495","lon":18.0644881,"address":"Hemmings Väg 17","startPrice":3500000,"hood":"Södersättra","lat":59.3327881,"url":"\/beskrivning\/1134495?r=2","squareMeters":90}
{"fee":0,"id":"1144575","lon":17.9015268,"address":"Malungsvägen 241","startPrice":2595000,"hood":"Viby","lat":59.463479,"url":"\/beskrivning\/1144575?r=2","squareMeters":137}
{"fee":0,"id":"1146635","lon":17.91094,"address":"Starrgränd 14","startPrice":2975000,"hood":"Viby","lat":59.4564254,"url":"\/beskrivning\/1146635?r=2","squareMeters":106}
{"fee":0,"id":"1151526","lon":17.9441105,"address":"Porsvägen 306","startPrice":2575000,"hood":"Vaxmora","lat":59.4581138,"url":"\/beskrivning\/1151526?r=2","squareMeters":116}
{"fee":0,"id":"1144756","lon":18.0644881,"address":"Skogsängsvägen 21b","startPrice":3950000,"hood":"Edsängen","lat":59.3327881,"url":"\/beskrivning\/1144756?r=2","squareMeters":176}
{"fee":0,"id":"1181656","lon":18.0644881,"address":"Torgvägen 9","startPrice":4395000,"hood":"Töjnan","lat":59.3327881,"url":"\/beskrivning\/1181656?r=2","squareMeters":153}
{"fee":0,"id":"1166256","lon":18.0644881,"address":"Tundalsvägen 2","startPrice":5700000,"hood":"Törnskogen","lat":59.3327881,"url":"\/beskrivning\/1166256?r=2","squareMeters":169}
{"fee":0,"id":"1147878","lon":17.948211,"address":"Lillebovägen 15","startPrice":4475000,"hood":"Helenelund","lat":59.4208747,"url":"\/beskrivning\/1147878?r=2","squareMeters":135}
{"fee":0,"id":"1121437","lon":17.8943038,"address":"Hollywoodvägen 43","startPrice":2900000,"hood":"Rotebro","lat":59.4850805,"url":"\/beskrivning\/1121437?r=2","squareMeters":126}
{"fee":0,"id":"1148037","lon":17.8621792,"address":"Ullvidevägen 85","startPrice":2275000,"hood":"Vällingby Vinsta","lat":59.3760129,"url":"\/beskrivning\/1148037?r=2","squareMeters":110}
{"fee":0,"id":"1157656","lon":17.907993,"address":"Hjortronvägen 9","startPrice":3475000,"hood":"Bromma Eneby","lat":59.3594907,"url":"\/beskrivning\/1157656?r=2","squareMeters":66}
{"fee":0,"id":"1184796","lon":17.8328207,"address":"Ardennergatan 18","startPrice":1995000,"hood":"Hässelby Gård","lat":59.3680951,"url":"\/beskrivning\/1184796?r=2","squareMeters":94}
{"fee":5721,"id":"1168336","lon":18.0703435,"address":"Budbärarvägen 16","startPrice":2795000,"hood":"Hökarängen\/Farsta","lat":59.2538165,"url":"\/beskrivning\/1168336?r=2","squareMeters":152}
{"fee":0,"id":"1181175","lon":17.8957694,"address":"Långvretsvägen  63","startPrice":5615900,"hood":"Spånga-Flysta","lat":59.3707512,"url":"\/beskrivning\/1181175?r=2","squareMeters":0}
{"fee":0,"id":"861704","lon":17.8937944,"address":"Järingegränd 16","startPrice":2250000,"hood":"Spånga Tensta","lat":59.3944402,"url":"\/beskrivning\/861704?r=2","squareMeters":92}
{"fee":0,"id":"1170036","lon":18.0644881,"address":"Rosbacken 41","startPrice":3750000,"hood":"Hässelby Södra Villastad","lat":59.3327881,"url":"\/beskrivning\/1170036?r=2","squareMeters":154}
{"fee":4694,"id":"1124378","lon":18.0644881,"address":"Nykarlebygatan 16(RADHUS)","startPrice":1500000,"hood":"Akalla Trädgårdsstaden","lat":59.3327881,"url":"\/beskrivning\/1124378?r=2","squareMeters":825}
{"fee":0,"id":"1161271","lon":17.860968,"address":"Ängsullsvägen 210","startPrice":2575000,"hood":"Vällingby - Kälvesta","lat":59.3823407,"url":"\/beskrivning\/1161271?r=2","squareMeters":131}
{"fee":0,"id":"1184704","lon":17.9066844,"address":"Karlebyvägen 3","startPrice":2500000,"hood":"Bromma - Norra Ängby","lat":59.3433029,"url":"\/beskrivning\/1184704?r=2","squareMeters":52}
{"fee":0,"id":"1151555","lon":17.9108986,"address":"Sätragårdsvägen 45","startPrice":2450000,"hood":"SÄTRA","lat":59.2867637,"url":"\/beskrivning\/1151555?r=2","squareMeters":126}
{"fee":0,"id":"859958","lon":17.9769512,"address":"Bandyvägen 55","startPrice":3950000,"hood":"Hägersten","lat":59.289901,"url":"\/beskrivning\/859958?r=2","squareMeters":84}
{"fee":0,"id":"1160795","lon":17.8623548,"address":"Ullvidevägen 95","startPrice":2250000,"hood":"Vinsta","lat":59.3763204,"url":"\/beskrivning\/1160795?r=2","squareMeters":108}
{"fee":0,"id":"1160257","lon":17.8940892,"address":"Solhagavägen 42","startPrice":5150000,"hood":"Solhem","lat":59.3750816,"url":"\/beskrivning\/1160257?r=2","squareMeters":155}
{"fee":0,"id":"1182235","lon":17.8814558,"address":"Dalkärrsleden 38","startPrice":2475000,"hood":"Vällingby - Nälsta","lat":59.3742753,"url":"\/beskrivning\/1182235?r=2","squareMeters":112}
{"fee":0,"id":"1155016","lon":18.0346866,"address":"Täckhammarsvägen 9","startPrice":3450000,"hood":"Örby Slott","lat":59.2825714,"url":"\/beskrivning\/1155016?r=2","squareMeters":112}
{"fee":0,"id":"1155496","lon":17.902657,"address":"Skogslöparvägen 24a","startPrice":3475000,"hood":"Flysta","lat":59.3714303,"url":"\/beskrivning\/1155496?r=2","squareMeters":76}
{"fee":0,"id":"1174755","lon":17.9255732,"address":"Tankebyggarbacken 53","startPrice":2195000,"hood":"Bredäng","lat":59.2925171,"url":"\/beskrivning\/1174755?r=2","squareMeters":126}
{"fee":0,"id":"1185358","lon":17.9375541,"address":"Själlandsgatan 37","startPrice":2895000,"hood":"KISTA","lat":59.3973873,"url":"\/beskrivning\/1185358?r=2","squareMeters":116}
{"fee":3456,"id":"957699","lon":17.8678534,"address":"Kanngjutargränd 31","startPrice":2395000,"hood":"","lat":59.3590634,"url":"\/beskrivning\/957699?r=2","squareMeters":105}
{"fee":0,"id":"1158816","lon":17.9105919,"address":"Åloppevägen 43","startPrice":6300000,"hood":"Bromma - Norra Ängby","lat":59.342767,"url":"\/beskrivning\/1158816?r=2","squareMeters":115}
{"fee":4667,"id":"1160775","lon":18.0644881,"address":"Lövångersgatan 27","startPrice":3775000,"hood":"Vällingbyhöjden","lat":59.3327881,"url":"\/beskrivning\/1160775?r=2","squareMeters":140}
{"fee":0,"id":"1185896","lon":18.0644881,"address":"Asplövsgränd 108","startPrice":2475000,"hood":"Hässelby Norra Villastad","lat":59.3327881,"url":"\/beskrivning\/1185896?r=2","squareMeters":138}
{"fee":0,"id":"1183955","lon":17.8806577,"address":"Östergårdsvägen 1","startPrice":4275000,"hood":"Spånga - Solhem","lat":59.3804169,"url":"\/beskrivning\/1183955?r=2","squareMeters":147}
{"fee":5468,"id":"1169658","lon":17.9334517,"address":"Jyllandsgatan 13","startPrice":2295000,"hood":"Kista","lat":59.4041694,"url":"\/beskrivning\/1169658?r=2","squareMeters":145}
{"fee":0,"id":"862446","lon":17.8937944,"address":"Järingegränd 20","startPrice":2250000,"hood":"Spånga Tensta","lat":59.3944402,"url":"\/beskrivning\/862446?r=2","squareMeters":92}
{"fee":0,"id":"1143817","lon":18.0300594,"address":"Ålbergavägen 15","startPrice":2900000,"hood":"Örby\/Högdalen","lat":59.2651126,"url":"\/beskrivning\/1143817?r=2","squareMeters":99}
{"fee":0,"id":"1146576","lon":17.9815974,"address":"Bromsvägen 63","startPrice":2995000,"hood":"Älvsjö - Långsjö","lat":59.2750715,"url":"\/beskrivning\/1146576?r=2","squareMeters":84}
{"fee":0,"id":"1183775","lon":18.0644881,"address":"Korgpilsgränd 60","startPrice":2275000,"hood":"Hässelby Norra Villastad","lat":59.3327881,"url":"\/beskrivning\/1183775?r=2","squareMeters":116}
{"fee":0,"id":"1183036","lon":18.0238665,"address":"Vagnhäradsvägen 12","startPrice":3490000,"hood":"Älvsjö - Örby","lat":59.268881,"url":"\/beskrivning\/1183036?r=2","squareMeters":112}
{"fee":0,"id":"1099458","lon":17.8179816,"address":"Liden 9","startPrice":3475000,"hood":"Hässelby Villastad","lat":59.3820572,"url":"\/beskrivning\/1099458?r=2","squareMeters":180}
{"fee":0,"id":"643466","lon":18.1163889,"address":"Pudelgränd","startPrice":2995000,"hood":"Norra Sköndal","lat":59.255,"url":"\/beskrivning\/643466?r=2","squareMeters":137}
{"fee":0,"id":"1024955","lon":18.0255987,"address":"Våruddsringen 156","startPrice":4295000,"hood":"Johannesdal","lat":58.9398792,"url":"\/beskrivning\/1024955?r=2","squareMeters":169}
{"fee":0,"id":"1138215","lon":17.8912777,"address":"Zornvägen 66 ***","startPrice":12975000,"hood":"Södra Ängby","lat":59.3387278,"url":"\/beskrivning\/1138215?r=2","squareMeters":210}
{"fee":0,"id":"1173795","lon":17.9298943,"address":"Kakvägen 51","startPrice":2395000,"hood":"Bromma Bällsta","lat":59.3646227,"url":"\/beskrivning\/1173795?r=2","squareMeters":54}
{"fee":0,"id":"1151816","lon":17.8199038,"address":"Drivbänksvägen 4","startPrice":2175000,"hood":"Hässelby Villastad","lat":59.3811566,"url":"\/beskrivning\/1151816?r=2","squareMeters":90}
{"fee":0,"id":"1078457","lon":17.9242636,"address":"Rånövägen 5","startPrice":17000000,"hood":"Nockebyhov","lat":59.3333402,"url":"\/beskrivning\/1078457?r=2","squareMeters":0}
{"fee":0,"id":"934856","lon":18.0644881,"address":"Hammarbrinken 20A","startPrice":4195000,"hood":"Hässelby Södra Villastad","lat":59.3327881,"url":"\/beskrivning\/934856?r=2","squareMeters":156}
{"fee":4460,"id":"1182315","lon":17.8548444,"address":"Redskapsvägen 88","startPrice":3350000,"hood":"Vällingby - Vinsta","lat":59.3739444,"url":"\/beskrivning\/1182315?r=2","squareMeters":105}
{"fee":6977,"id":"1115035","lon":18.0644881,"address":"Berglunda Gård - Berghamnsbrinken 2","startPrice":4400000,"hood":"Hässelby Södra Villastad","lat":59.3327881,"url":"\/beskrivning\/1115035?r=2","squareMeters":197}
{"fee":0,"id":"1169776","lon":18.0644881,"address":"Sandviksvägen 176","startPrice":2375000,"hood":"Hässelby Södra Villastad","lat":59.3327881,"url":"\/beskrivning\/1169776?r=2","squareMeters":102}
{"fee":0,"id":"1166257","lon":17.8870919,"address":"Oviksgatan 31","startPrice":3075000,"hood":"Råcksta","lat":59.363893,"url":"\/beskrivning\/1166257?r=2","squareMeters":67}
{"fee":5609,"id":"1168455","lon":18.0754948,"address":"Handelsvägen 88","startPrice":3495000,"hood":"Gamla Enskede","lat":59.2807463,"url":"\/beskrivning\/1168455?r=2","squareMeters":120}
{"fee":5427,"id":"1166258","lon":18.0043951,"address":"Segervägen 203","startPrice":2695000,"hood":"Älvsjö","lat":59.278489,"url":"\/beskrivning\/1166258?r=2","squareMeters":1022}
{"fee":0,"id":"1161659","lon":17.8772079,"address":"Västergöksvägen 125","startPrice":2895000,"hood":"Nälsta","lat":59.3773529,"url":"\/beskrivning\/1161659?r=2","squareMeters":114}
{"fee":0,"id":"1134637","lon":18.0644881,"address":"Snödroppsgränd 5","startPrice":5995000,"hood":"Hässelby Villastad - Norra","lat":59.3327881,"url":"\/beskrivning\/1134637?r=2","squareMeters":201}
{"fee":0,"id":"1154355","lon":18.0267245,"address":"Fem Fålars Brunn 4","startPrice":4250000,"hood":"Liseberg - Älvsjö","lat":59.2846271,"url":"\/beskrivning\/1154355?r=2","squareMeters":151}
{"fee":0,"id":"1158215","lon":18.0857986,"address":"Ripstigen 4","startPrice":4600000,"hood":"Tallkrogen","lat":59.2723287,"url":"\/beskrivning\/1158215?r=2","squareMeters":108}
{"fee":0,"id":"1170575","lon":17.9346748,"address":"Gamla Bromstensvägen 31","startPrice":3650000,"hood":"Bromma, Bällsta","lat":59.3635732,"url":"\/beskrivning\/1170575?r=2","squareMeters":65}
{"fee":0,"id":"1182320","lon":17.8073436,"address":"Eklövsgränd 6","startPrice":3775000,"hood":"Hässelby Villastad","lat":59.3872626,"url":"\/beskrivning\/1182320?r=2","squareMeters":169}
{"fee":0,"id":"1071375","lon":17.982437,"address":"Värdshusslingan 14","startPrice":11900000,"hood":"Stora Essingen","lat":59.317406,"url":"\/beskrivning\/1071375?r=2","squareMeters":134}
{"fee":0,"id":"1186135","lon":18.0644881,"address":"Kråkbärsgränd 33","startPrice":4195000,"hood":"Hässelby Norra Villastad","lat":59.3327881,"url":"\/beskrivning\/1186135?r=2","squareMeters":205}
{"fee":4628,"id":"1094280","lon":17.9447416,"address":"Langelandsgatan 21","startPrice":2195000,"hood":"Kista","lat":59.3991978,"url":"\/beskrivning\/1094280?r=2","squareMeters":915}
{"fee":0,"id":"1165858","lon":17.8833089,"address":"Kälvestavägen 82","startPrice":3975000,"hood":"Spånga - Solhem","lat":59.3815977,"url":"\/beskrivning\/1165858?r=2","squareMeters":132}
{"fee":0,"id":"1161186","lon":17.9292526,"address":"Århusgatan 163","startPrice":1995000,"hood":"Kista","lat":59.4003236,"url":"\/beskrivning\/1161186?r=2","squareMeters":100}
{"fee":4983,"id":"831824","lon":18.0644881,"address":"Ikano Bostad - Växthusvägen hus 15","startPrice":2950000,"hood":"Hässelby Norra Villastad","lat":59.3327881,"url":"\/beskrivning\/831824?r=2","squareMeters":1145}
{"fee":0,"id":"1170555","lon":17.8943913,"address":"Solhemsbackarna 18","startPrice":2475000,"hood":"Spånga - Solhöjden","lat":59.388516,"url":"\/beskrivning\/1170555?r=2","squareMeters":119}
{"fee":4983,"id":"831366","lon":18.0644881,"address":"Ikano Bostad - Växthusvägen hus 21","startPrice":2695000,"hood":"Hässelby Norra Villastad","lat":59.3327881,"url":"\/beskrivning\/831366?r=2","squareMeters":1145}
{"fee":5304,"id":"1165917","lon":17.9373429,"address":"Sorögatan 55","startPrice":1795000,"hood":"Kista","lat":59.4047415,"url":"\/beskrivning\/1165917?r=2","squareMeters":915}
{"fee":0,"id":"1161515","lon":17.9101181,"address":"Torpstugegränd 2K","startPrice":2425000,"hood":"Spånga - Bromsten","lat":59.385723,"url":"\/beskrivning\/1161515?r=2","squareMeters":112}
{"fee":0,"id":"1184139","lon":17.877019,"address":"Inspektorsbacken 46","startPrice":4950000,"hood":"Vällingby - Nälsta","lat":59.3735757,"url":"\/beskrivning\/1184139?r=2","squareMeters":201}
{"fee":0,"id":"925837","lon":17.8937436,"address":"Järingegränd 82","startPrice":2495000,"hood":"Spånga Hjulsta","lat":59.3945724,"url":"\/beskrivning\/925837?r=2","squareMeters":126}
{"fee":0,"id":"1180756","lon":17.9473834,"address":"Vildkattsvägen 8","startPrice":10400000,"hood":"Bromma - Ålsten","lat":59.3265659,"url":"\/beskrivning\/1180756?r=2","squareMeters":187}
{"fee":0,"id":"1184456","lon":17.9147973,"address":"Fältvägen 17","startPrice":2995000,"hood":"Spånga Bromsten","lat":59.3805696,"url":"\/beskrivning\/1184456?r=2","squareMeters":108}
{"fee":4983,"id":"658430","lon":18.0644881,"address":"Ikano Bostad - Växthusvägen hus 9","startPrice":2825000,"hood":"Hässelby Norra Villastad","lat":59.3327881,"url":"\/beskrivning\/658430?r=2","squareMeters":1145}
{"fee":0,"id":"1179256","lon":17.9646182,"address":"Lövåsvägen 20","startPrice":3990000,"hood":"Bromma Ulvsunda","lat":59.3378944,"url":"\/beskrivning\/1179256?r=2","squareMeters":101}
{"fee":0,"id":"1176937","lon":17.8957967,"address":"Långvretsvägen  61","startPrice":2500000,"hood":"Spånga-Flysta","lat":59.3704768,"url":"\/beskrivning\/1176937?r=2","squareMeters":69}
{"fee":4839,"id":"926800","lon":17.857971,"address":"Ullvidevägen 9","startPrice":1975000,"hood":"Vällingby\/ Vinsta","lat":59.3765856,"url":"\/beskrivning\/926800?r=2","squareMeters":105}
{"fee":0,"id":"1071103","lon":17.8926684,"address":"Bullerholmsgränd 22","startPrice":2725000,"hood":"Skärholmen","lat":59.2805676,"url":"\/beskrivning\/1071103?r=2","squareMeters":139}
{"fee":0,"id":"1181222","lon":17.8783283,"address":"Utgårdsvägen 51","startPrice":3275000,"hood":"Spånga - Solhem","lat":59.3829549,"url":"\/beskrivning\/1181222?r=2","squareMeters":80}
{"fee":0,"id":"1182776","lon":17.86719,"address":"Linjemästarvägen 88","startPrice":2775000,"hood":"Nälsta","lat":59.3770885,"url":"\/beskrivning\/1182776?r=2","squareMeters":100}
{"fee":0,"id":"1092455","lon":17.957282,"address":"Mälarhöjden, HÄGERSTEN","startPrice":3995000,"hood":"Mälarhöjden","lat":59.3009181,"url":"\/beskrivning\/1092455?r=2","squareMeters":107}
{"fee":0,"id":"1177635","lon":17.9251602,"address":"Annexvägen 9","startPrice":5500000,"hood":"Bromma Kyrka","lat":59.355848,"url":"\/beskrivning\/1177635?r=2","squareMeters":111}
{"fee":0,"id":"1184335","lon":17.8642292,"address":"Ullvidevägen 127","startPrice":2700000,"hood":"Vällingby - Vinsta","lat":59.3760504,"url":"\/beskrivning\/1184335?r=2","squareMeters":105}
{"fee":0,"id":"1103838","lon":17.9443237,"address":"Tavastehusgatan 19 Gavelradhus!","startPrice":2300000,"hood":"AKALLA Akalladalen\/KISTA","lat":59.4024802,"url":"\/beskrivning\/1103838?r=2","squareMeters":138}
{"fee":8323,"id":"1115015","lon":18.0644881,"address":"Berglunda Gård - Berghamnsbrinken 2","startPrice":4950000,"hood":"Hässelby Södra Villastad","lat":59.3327881,"url":"\/beskrivning\/1115015?r=2","squareMeters":235}
{"fee":0,"id":"1146915","lon":17.8484419,"address":"Torplyckegränd 144","startPrice":2875000,"hood":"Vällingby Vinsta","lat":59.3761729,"url":"\/beskrivning\/1146915?r=2","squareMeters":121}
{"fee":0,"id":"1160275","lon":18.0733111,"address":"Sotholmsvägen 5,huset är sålt!","startPrice":4100000,"hood":"Enskede- Svedmyra","lat":59.2742389,"url":"\/beskrivning\/1160275?r=2","squareMeters":108}
{"fee":0,"id":"1181978","lon":17.8594319,"address":"Ivarskärrsvägen 113","startPrice":4175000,"hood":"Vällingby - Vinsta","lat":59.3793754,"url":"\/beskrivning\/1181978?r=2","squareMeters":160}
{"fee":0,"id":"1185856","lon":17.9595497,"address":"Hägerstensvägen 319","startPrice":5150000,"hood":"Mälarhöjden-Hägersten","lat":59.3006743,"url":"\/beskrivning\/1185856?r=2","squareMeters":122}
{"fee":0,"id":"1146675","lon":17.9700361,"address":"Slånbärstigen 40","startPrice":3995000,"hood":"Älvsjö Herrängen","lat":59.2729465,"url":"\/beskrivning\/1146675?r=2","squareMeters":103}
{"fee":4983,"id":"832101","lon":18.0644881,"address":"Ikano Bostad - Växthusvägen hus 11","startPrice":2750000,"hood":"Hässelby Norra Villastad","lat":59.3327881,"url":"\/beskrivning\/832101?r=2","squareMeters":1145}
{"fee":0,"id":"1184999","lon":17.9106672,"address":"Johannelundsvägen 38","startPrice":3100000,"hood":"Spånga - Sundby","lat":59.3626712,"url":"\/beskrivning\/1184999?r=2","squareMeters":138}
{"fee":4983,"id":"832316","lon":18.0644881,"address":"Ikano Bostad - Växthusvägen hus 6","startPrice":2795000,"hood":"Hässelby Norra Villastad","lat":59.3327881,"url":"\/beskrivning\/832316?r=2","squareMeters":1145}
{"fee":0,"id":"1184560","lon":17.9644489,"address":"Lokattsvägen 42","startPrice":8250000,"hood":"Bromma Stora Mossen","lat":59.3308202,"url":"\/beskrivning\/1184560?r=2","squareMeters":170}
{"fee":0,"id":"1154585","lon":18.0348029,"address":"Skebokvarnsvägen 248","startPrice":2195000,"hood":"Högdalen","lat":59.2665112,"url":"\/beskrivning\/1154585?r=2","squareMeters":90}
{"fee":0,"id":"1144935","lon":17.9094007,"address":"Gillsätragränd 26","startPrice":1695000,"hood":"Sätra","lat":59.2836756,"url":"\/beskrivning\/1144935?r=2","squareMeters":126}
{"fee":4839,"id":"1171195","lon":17.8607862,"address":"Ullvidevägen 63e","startPrice":1975000,"hood":"Vinsta","lat":59.3764595,"url":"\/beskrivning\/1171195?r=2","squareMeters":105}
{"fee":2647,"id":"1147135","lon":18.0644881,"address":"Nykarlebygatan RADHUS","startPrice":800000,"hood":"Akalla Trädgårdsstaden","lat":59.3327881,"url":"\/beskrivning\/1147135?r=2","squareMeters":395}
{"fee":0,"id":"1154419","lon":17.9576708,"address":"Ursviksvägen 134B","startPrice":2995000,"hood":"Ursvik","lat":59.3835982,"url":"\/beskrivning\/1154419?r=2","squareMeters":105}
{"fee":0,"id":"950078","lon":17.5791453,"address":"Kägelvägen 10","startPrice":3645000,"hood":"Geneta","lat":59.1895679,"url":"\/beskrivning\/950078?r=2","squareMeters":128}
{"fee":0,"id":"1135915","lon":17.5430252,"address":"Vivägen 9","startPrice":1975000,"hood":"Hölö","lat":59.0263928,"url":"\/beskrivning\/1135915?r=2","squareMeters":117}
{"fee":0,"id":"1182715","lon":17.5956124,"address":"Krikongränd 5","startPrice":2990000,"hood":"Västergård","lat":59.1849701,"url":"\/beskrivning\/1182715?r=2","squareMeters":112}
{"fee":6017,"id":"1166736","lon":17.5485722,"address":"Herrgårdsvägen 27, Parhus","startPrice":975000,"hood":"Kallfors","lat":59.1100329,"url":"\/beskrivning\/1166736?r=2","squareMeters":1145}
{"fee":0,"id":"943602","lon":18.0644881,"address":"Norra Järnvägsgatan 21","startPrice":2550000,"hood":"Järna - Centralt","lat":59.3327881,"url":"\/beskrivning\/943602?r=2","squareMeters":114}
{"fee":0,"id":"1149955","lon":17.5561446,"address":"Myrstigen 21","startPrice":2450000,"hood":"Järna","lat":59.097139,"url":"\/beskrivning\/1149955?r=2","squareMeters":160}
{"fee":0,"id":"1143396","lon":17.5485722,"address":"Bodils Väg 8","startPrice":3995000,"hood":"Järna - Östra Kallfors","lat":59.1100329,"url":"\/beskrivning\/1143396?r=2","squareMeters":180}
{"fee":6087,"id":"1185555","lon":18.0644881,"address":"Törnrosavägen 47","startPrice":1290000,"hood":"KARLHOV","lat":59.3327881,"url":"\/beskrivning\/1185555?r=2","squareMeters":1135}
{"fee":0,"id":"1020035","lon":18.0644881,"address":"Åsbovägen 36","startPrice":1695000,"hood":"Ritorp","lat":59.3327881,"url":"\/beskrivning\/1020035?r=2","squareMeters":75}
{"fee":7914,"id":"1094941","lon":17.59682,"address":"Alice Tegnérs Stig 2","startPrice":520000,"hood":"Lina gård","lat":59.2113771,"url":"\/beskrivning\/1094941?r=2","squareMeters":108}
{"fee":0,"id":"1152160","lon":17.6473849,"address":"Hagelins väg 4","startPrice":3975000,"hood":"Pershagen","lat":59.1565729,"url":"\/beskrivning\/1152160?r=2","squareMeters":120}
{"fee":0,"id":"969616","lon":18.0644881,"address":"Karlhovsvägen 22","startPrice":2950000,"hood":"Karlhov","lat":59.3327881,"url":"\/beskrivning\/969616?r=2","squareMeters":160}
{"fee":0,"id":"838076","lon":17.6225894,"address":"Beckasinvägen 42","startPrice":5200000,"hood":"Viksberg","lat":59.2422951,"url":"\/beskrivning\/838076?r=2","squareMeters":180}
{"fee":0,"id":"967275","lon":18.2165496,"address":"Höglandsvägen 31","startPrice":4700000,"hood":"Hagaberg","lat":59.5526737,"url":"\/beskrivning\/967275?r=2","squareMeters":210}
{"fee":0,"id":"936620","lon":18.0644881,"address":"Hagtornsvägen 7","startPrice":2975000,"hood":"Karlhov","lat":59.3327881,"url":"\/beskrivning\/936620?r=2","squareMeters":150}
{"fee":0,"id":"1122576","lon":17.5871292,"address":"Karin Boyes Väg 9","startPrice":3890000,"hood":"Gamla Lina","lat":59.2129239,"url":"\/beskrivning\/1122576?r=2","squareMeters":145}
{"fee":0,"id":"882524","lon":17.5643008,"address":"Storgatan 69","startPrice":2990000,"hood":"Järna - Centralt","lat":59.0915317,"url":"\/beskrivning\/882524?r=2","squareMeters":113}
{"fee":0,"id":"851796","lon":17.5494908,"address":"Myrstugevägen 2","startPrice":3200000,"hood":"Järna - Kallfors","lat":59.1055112,"url":"\/beskrivning\/851796?r=2","squareMeters":135}
{"fee":0,"id":"880441","lon":17.5405005,"address":"Skyttens Väg 10","startPrice":3195000,"hood":"Järna - Kallfors","lat":59.1006729,"url":"\/beskrivning\/880441?r=2","squareMeters":158}
{"fee":0,"id":"1145655","lon":17.5662946,"address":"Logsjövägen 5","startPrice":2580000,"hood":"Järna","lat":59.0942117,"url":"\/beskrivning\/1145655?r=2","squareMeters":74}
{"fee":0,"id":"1128238","lon":17.6464437,"address":"Silvermossvägen 8","startPrice":3190000,"hood":"Brunnsäng","lat":59.2164885,"url":"\/beskrivning\/1128238?r=2","squareMeters":113}
{"fee":0,"id":"1069655","lon":17.6604197,"address":"Båtsmansvägen 18a","startPrice":4250000,"hood":"Pershagen","lat":59.151722,"url":"\/beskrivning\/1069655?r=2","squareMeters":147}
{"fee":0,"id":"928098","lon":17.6576099,"address":"Bränningestrandsvägen 10","startPrice":3395000,"hood":"Pershagen","lat":59.1530437,"url":"\/beskrivning\/928098?r=2","squareMeters":126}
{"fee":0,"id":"1181859","lon":17.6549327,"address":"Sofiehillsvägen 15","startPrice":3180000,"hood":"Östertälje","lat":59.1879898,"url":"\/beskrivning\/1181859?r=2","squareMeters":113}
{"fee":0,"id":"996380","lon":17.6130149,"address":"Ottesångsvägen 11","startPrice":2750000,"hood":"Centralt","lat":59.2012641,"url":"\/beskrivning\/996380?r=2","squareMeters":110}
{"fee":0,"id":"1099898","lon":17.6533428,"address":"Karpstigen 16","startPrice":2495000,"hood":"","lat":59.1515208,"url":"\/beskrivning\/1099898?r=2","squareMeters":130}
{"fee":0,"id":"516357","lon":18.0644881,"address":"Bodils Väg 1","startPrice":3400000,"hood":"Kallfors Östra","lat":59.3327881,"url":"\/beskrivning\/516357?r=2","squareMeters":138}
{"fee":0,"id":"1004341","lon":17.5931962,"address":"Ägostigen 22","startPrice":1750000,"hood":"Gamla Bårsta\/Ronna","lat":59.206114,"url":"\/beskrivning\/1004341?r=2","squareMeters":119}
{"fee":0,"id":"1169277","lon":17.9796515,"address":"Ravinvägen 10","startPrice":2725000,"hood":"Mariekäll","lat":59.3677531,"url":"\/beskrivning\/1169277?r=2","squareMeters":123}
{"fee":0,"id":"940457","lon":17.7848279,"address":"Ragnhildsborgsvägen 52","startPrice":4150000,"hood":"Ragnhildsborg","lat":58.9810616,"url":"\/beskrivning\/940457?r=2","squareMeters":200}
{"fee":0,"id":"1088077","lon":17.6485934,"address":"Hambostigen 7","startPrice":2995000,"hood":"","lat":59.1944768,"url":"\/beskrivning\/1088077?r=2","squareMeters":128}
{"fee":0,"id":"1171375","lon":18.0644881,"address":"Ågärdevägen 29","startPrice":2995000,"hood":"Mariekäll","lat":59.3327881,"url":"\/beskrivning\/1171375?r=2","squareMeters":151}
{"fee":0,"id":"910695","lon":17.6720472,"address":"Lurvägen 17","startPrice":3995000,"hood":"Glasberga","lat":59.1914607,"url":"\/beskrivning\/910695?r=2","squareMeters":174}
{"fee":0,"id":"862166","lon":18.0644881,"address":"Kämpevägen 21","startPrice":2950000,"hood":"Bårsta","lat":59.3327881,"url":"\/beskrivning\/862166?r=2","squareMeters":168}
{"fee":0,"id":"1152316","lon":17.4225842,"address":"Borrstigen 4","startPrice":2595000,"hood":"Västra Lida","lat":59.2620767,"url":"\/beskrivning\/1152316?r=2","squareMeters":169}
{"fee":0,"id":"1090477","lon":17.6498632,"address":"Tegelängsvägen 49","startPrice":2595000,"hood":"","lat":59.1983358,"url":"\/beskrivning\/1090477?r=2","squareMeters":150}
{"fee":0,"id":"937899","lon":18.0644881,"address":"Boklidsvägen 22","startPrice":3950000,"hood":"Ritorp","lat":59.3327881,"url":"\/beskrivning\/937899?r=2","squareMeters":179}
{"fee":0,"id":"1084235","lon":17.5051582,"address":"Sunnanstigen 9","startPrice":3400000,"hood":"Sandviken","lat":59.2662425,"url":"\/beskrivning\/1084235?r=2","squareMeters":150}
{"fee":0,"id":"837615","lon":17.4663036,"address":"Stjärna 6","startPrice":3495000,"hood":"Enhörna","lat":59.2533239,"url":"\/beskrivning\/837615?r=2","squareMeters":212}
{"fee":0,"id":"1181221","lon":18.0644881,"address":"Ljungvägen 2b","startPrice":3175000,"hood":"Bårsta","lat":59.3327881,"url":"\/beskrivning\/1181221?r=2","squareMeters":158}
{"fee":0,"id":"943625","lon":17.6267874,"address":"Nötväckastigen 5","startPrice":3950000,"hood":"Viksäter","lat":59.2376215,"url":"\/beskrivning\/943625?r=2","squareMeters":206}
{"fee":0,"id":"1094435","lon":17.536956,"address":"Centralgränd 7","startPrice":1950000,"hood":"Hölö","lat":59.0270262,"url":"\/beskrivning\/1094435?r=2","squareMeters":96}
{"fee":0,"id":"943265","lon":18.0644881,"address":"Enstigen 4","startPrice":1650000,"hood":"Dammkärr","lat":59.3327881,"url":"\/beskrivning\/943265?r=2","squareMeters":54}
{"fee":0,"id":"1171935","lon":17.6309176,"address":"Bragevägen 4","startPrice":2495000,"hood":"Brunnsäng","lat":59.2097475,"url":"\/beskrivning\/1171935?r=2","squareMeters":125}
{"fee":0,"id":"1065743","lon":17.5665734,"address":"Blåklocksstigen 32","startPrice":1995000,"hood":"Järna","lat":59.0861221,"url":"\/beskrivning\/1065743?r=2","squareMeters":108}
{"fee":0,"id":"1121515","lon":17.5404951,"address":"Åkervägen 6","startPrice":1900000,"hood":"Hölö","lat":59.0283876,"url":"\/beskrivning\/1121515?r=2","squareMeters":116}
{"fee":0,"id":"1052995","lon":17.6324055,"address":"Brunnsbergavägen 3","startPrice":2975000,"hood":"Brunnsäng","lat":59.2097557,"url":"\/beskrivning\/1052995?r=2","squareMeters":130}
{"fee":6199,"id":"1149776","lon":18.0644881,"address":"Terrakottastigen 25","startPrice":545000,"hood":"Lina Hage","lat":59.3327881,"url":"\/beskrivning\/1149776?r=2","squareMeters":89}
{"fee":0,"id":"1157555","lon":18.2803375,"address":"Konstnärsvägen 17","startPrice":4100000,"hood":"Strand","lat":59.2439927,"url":"\/beskrivning\/1157555?r=2","squareMeters":122}
{"fee":0,"id":"1127135","lon":18.4615637,"address":"Kullvägen 8B","startPrice":3750000,"hood":"Sofieberg","lat":59.5110794,"url":"\/beskrivning\/1127135?r=2","squareMeters":92}
{"fee":0,"id":"1156636","lon":18.4615637,"address":"Fältvägen 16","startPrice":5650000,"hood":"Sofieberg","lat":59.5110794,"url":"\/beskrivning\/1156636?r=2","squareMeters":168}
{"fee":0,"id":"1167865","lon":18.2111718,"address":"Slaggvägen 5","startPrice":3250000,"hood":"Trollbäcken","lat":59.2336628,"url":"\/beskrivning\/1167865?r=2","squareMeters":109}
{"fee":0,"id":"1147640","lon":18.0644881,"address":"Movägen 3a","startPrice":4195000,"hood":"Hanviken","lat":59.3327881,"url":"\/beskrivning\/1147640?r=2","squareMeters":133}
{"fee":0,"id":"1176835","lon":18.2111385,"address":"Vendelsövägen 87","startPrice":3250000,"hood":"Trollbäcken","lat":59.2184382,"url":"\/beskrivning\/1176835?r=2","squareMeters":155}
