{"fee":0,"lon":17.9251602,"address":"Annexvägen 9","startPrice":5500000,"hood":"Bromma Kyrka","lat":59.355848,"url":"\/beskrivning\/1177635?r=2","squareMeters":111}
{"fee":0,"lon":17.9473834,"address":"Vildkattsvägen 8","startPrice":10400000,"hood":"Bromma - Ålsten","lat":59.3265659,"url":"\/beskrivning\/1180756?r=2","squareMeters":187}
{"fee":0,"lon":17.9646182,"address":"Lövåsvägen 20","startPrice":3990000,"hood":"Bromma Ulvsunda","lat":59.3378944,"url":"\/beskrivning\/1179256?r=2","squareMeters":101}
{"fee":0,"lon":17.9066844,"address":"Karlebyvägen 3","startPrice":2500000,"hood":"Bromma - Norra Ängby","lat":59.3433029,"url":"\/beskrivning\/1184704?r=2","squareMeters":52}
{"fee":0,"lon":17.9105919,"address":"Åloppevägen 43","startPrice":6300000,"hood":"Bromma - Norra Ängby","lat":59.342767,"url":"\/beskrivning\/1158816?r=2","squareMeters":115}
{"fee":0,"lon":17.8431118,"address":"Barkarby 10 \/ Rörbyvägen 47","startPrice":3750000,"hood":"Drottningholm","lat":59.3283447,"url":"\/beskrivning\/1160116?r=2","squareMeters":78}
{"fee":0,"lon":17.8912777,"address":"Zornvägen 66 ***","startPrice":12975000,"hood":"Södra Ängby","lat":59.3387278,"url":"\/beskrivning\/1138215?r=2","squareMeters":210}
{"fee":0,"lon":17.9242636,"address":"Rånövägen 5","startPrice":17000000,"hood":"Nockebyhov","lat":59.3333402,"url":"\/beskrivning\/1078457?r=2","squareMeters":0}
{"fee":0,"lon":17.9106672,"address":"Johannelundsvägen 38","startPrice":3100000,"hood":"Spånga - Sundby","lat":59.3626712,"url":"\/beskrivning\/1184999?r=2","squareMeters":138}
{"fee":0,"lon":17.9644489,"address":"Lokattsvägen 42","startPrice":8250000,"hood":"Bromma Stora Mossen","lat":59.3308202,"url":"\/beskrivning\/1184560?r=2","squareMeters":170}
{"fee":0,"lon":17.8870919,"address":"Oviksgatan 31","startPrice":3075000,"hood":"Råcksta","lat":59.363893,"url":"\/beskrivning\/1166257?r=2","squareMeters":67}
{"fee":0,"lon":18.0644881,"address":"Lupinvägen 35","startPrice":3750000,"hood":"Hässelby Södra Villastad","lat":59.3327881,"url":"\/beskrivning\/1170475?r=2","squareMeters":149}
{"fee":0,"lon":18.0644881,"address":"Sandviksvägen 176","startPrice":2375000,"hood":"Hässelby Södra Villastad","lat":59.3327881,"url":"\/beskrivning\/1169776?r=2","squareMeters":102}
{"fee":6977,"lon":18.0644881,"address":"Berglunda Gård - Berghamnsbrinken 2","startPrice":4400000,"hood":"Hässelby Södra Villastad","lat":59.3327881,"url":"\/beskrivning\/1115035?r=2","squareMeters":197}
{"fee":0,"lon":17.8642292,"address":"Ullvidevägen 127","startPrice":2700000,"hood":"Vällingby - Vinsta","lat":59.3760504,"url":"\/beskrivning\/1184335?r=2","squareMeters":105}
{"fee":0,"lon":17.877019,"address":"Inspektorsbacken 46","startPrice":4950000,"hood":"Vällingby - Nälsta","lat":59.3735757,"url":"\/beskrivning\/1184139?r=2","squareMeters":201}
{"fee":0,"lon":17.9147973,"address":"Fältvägen 17","startPrice":2995000,"hood":"Spånga Bromsten","lat":59.3805696,"url":"\/beskrivning\/1184456?r=2","squareMeters":108}
{"fee":0,"lon":18.0644881,"address":"Rosbacken 41","startPrice":3750000,"hood":"Hässelby Södra Villastad","lat":59.3327881,"url":"\/beskrivning\/1170036?r=2","squareMeters":154}
{"fee":3456,"lon":17.8678534,"address":"Kanngjutargränd 31","startPrice":2395000,"hood":"","lat":59.3590634,"url":"\/beskrivning\/957699?r=2","squareMeters":105}
{"fee":2647,"lon":18.0644881,"address":"Nykarlebygatan RADHUS","startPrice":800000,"hood":"Akalla Trädgårdsstaden","lat":59.3327881,"url":"\/beskrivning\/1147135?r=2","squareMeters":395}
{"fee":4694,"lon":18.0644881,"address":"Nykarlebygatan 16(RADHUS)","startPrice":1500000,"hood":"Akalla Trädgårdsstaden","lat":59.3327881,"url":"\/beskrivning\/1124378?r=2","squareMeters":825}
{"fee":0,"lon":17.8937944,"address":"Järingegränd 20","startPrice":2250000,"hood":"Spånga Tensta","lat":59.3944402,"url":"\/beskrivning\/862446?r=2","squareMeters":92}
{"fee":0,"lon":17.907993,"address":"Hjortronvägen 9","startPrice":3475000,"hood":"Bromma Eneby","lat":59.3594907,"url":"\/beskrivning\/1157656?r=2","squareMeters":66}
{"fee":5304,"lon":17.9373429,"address":"Sorögatan 55","startPrice":1795000,"hood":"Kista","lat":59.4047415,"url":"\/beskrivning\/1165917?r=2","squareMeters":915}
{"fee":0,"lon":17.8943913,"address":"Solhemsbackarna 18","startPrice":2475000,"hood":"Spånga - Solhöjden","lat":59.388516,"url":"\/beskrivning\/1170555?r=2","squareMeters":119}
{"fee":4460,"lon":17.8548444,"address":"Redskapsvägen 88","startPrice":3350000,"hood":"Vällingby - Vinsta","lat":59.3739444,"url":"\/beskrivning\/1182315?r=2","squareMeters":105}
{"fee":0,"lon":18.0644881,"address":"Snödroppsgränd 5","startPrice":5995000,"hood":"Hässelby Villastad - Norra","lat":59.3327881,"url":"\/beskrivning\/1134637?r=2","squareMeters":201}
{"fee":0,"lon":17.9346748,"address":"Gamla Bromstensvägen 31","startPrice":3650000,"hood":"Bromma, Bällsta","lat":59.3635732,"url":"\/beskrivning\/1170575?r=2","squareMeters":65}
{"fee":4628,"lon":17.9447416,"address":"Langelandsgatan 21","startPrice":2195000,"hood":"Kista","lat":59.3991978,"url":"\/beskrivning\/1094280?r=2","squareMeters":915}
{"fee":0,"lon":17.8833089,"address":"Kälvestavägen 82","startPrice":3975000,"hood":"Spånga - Solhem","lat":59.3815977,"url":"\/beskrivning\/1165858?r=2","squareMeters":132}
{"fee":0,"lon":17.8937436,"address":"Järingegränd 82","startPrice":2495000,"hood":"Spånga Hjulsta","lat":59.3945724,"url":"\/beskrivning\/925837?r=2","squareMeters":126}
{"fee":0,"lon":17.8783283,"address":"Utgårdsvägen 51","startPrice":3275000,"hood":"Spånga - Solhem","lat":59.3829549,"url":"\/beskrivning\/1181222?r=2","squareMeters":80}
{"fee":0,"lon":17.8623548,"address":"Ullvidevägen 95","startPrice":2250000,"hood":"Vinsta","lat":59.3763204,"url":"\/beskrivning\/1160795?r=2","squareMeters":108}
{"fee":0,"lon":17.8940892,"address":"Solhagavägen 42","startPrice":5150000,"hood":"Solhem","lat":59.3750816,"url":"\/beskrivning\/1160257?r=2","squareMeters":155}
{"fee":4667,"lon":18.0644881,"address":"Lövångersgatan 27","startPrice":3775000,"hood":"Vällingbyhöjden","lat":59.3327881,"url":"\/beskrivning\/1160775?r=2","squareMeters":140}
{"fee":0,"lon":17.9298943,"address":"Kakvägen 51","startPrice":2395000,"hood":"Bromma Bällsta","lat":59.3646227,"url":"\/beskrivning\/1173795?r=2","squareMeters":54}
{"fee":8323,"lon":18.0644881,"address":"Berglunda Gård - Berghamnsbrinken 2","startPrice":4950000,"hood":"Hässelby Södra Villastad","lat":59.3327881,"url":"\/beskrivning\/1115015?r=2","squareMeters":235}
{"fee":5468,"lon":17.9334517,"address":"Jyllandsgatan 13","startPrice":2295000,"hood":"Kista","lat":59.4041694,"url":"\/beskrivning\/1169658?r=2","squareMeters":145}
{"fee":0,"lon":17.8484419,"address":"Torplyckegränd 144","startPrice":2875000,"hood":"Vällingby Vinsta","lat":59.3761729,"url":"\/beskrivning\/1146915?r=2","squareMeters":121}
{"fee":4839,"lon":17.857971,"address":"Ullvidevägen 9","startPrice":1975000,"hood":"Vällingby\/ Vinsta","lat":59.3765856,"url":"\/beskrivning\/926800?r=2","squareMeters":105}
{"fee":0,"lon":18.0644881,"address":"Asplövsgränd 108","startPrice":2475000,"hood":"Hässelby Norra Villastad","lat":59.3327881,"url":"\/beskrivning\/1185896?r=2","squareMeters":138}
{"fee":0,"lon":17.8621792,"address":"Ullvidevägen 85","startPrice":2275000,"hood":"Vällingby Vinsta","lat":59.3760129,"url":"\/beskrivning\/1148037?r=2","squareMeters":110}
{"fee":0,"lon":17.8073436,"address":"Eklövsgränd 6","startPrice":3775000,"hood":"Hässelby Villastad","lat":59.3872626,"url":"\/beskrivning\/1182320?r=2","squareMeters":169}
{"fee":4839,"lon":17.8607862,"address":"Ullvidevägen 63e","startPrice":1975000,"hood":"Vinsta","lat":59.3764595,"url":"\/beskrivning\/1171195?r=2","squareMeters":105}
{"fee":0,"lon":17.86719,"address":"Linjemästarvägen 88","startPrice":2775000,"hood":"Nälsta","lat":59.3770885,"url":"\/beskrivning\/1182776?r=2","squareMeters":100}
{"fee":0,"lon":17.902657,"address":"Skogslöparvägen 24a","startPrice":3475000,"hood":"Flysta","lat":59.3714303,"url":"\/beskrivning\/1155496?r=2","squareMeters":76}
